time_s,roll_deg,pitch_deg,yaw_deg,q0,q1,q2,q3,quat_norm,quat_rotation_deg,quat_axis_x,quat_axis_y,quat_axis_z,quat_axis_latitude_deg,quat_axis_longitude_deg,quat_axis_longitude_unwrapped_deg,acc_earth_x,acc_earth_y,acc_earth_z,acc_linear_x,acc_linear_y,acc_linear_z,a_vert_linear_ms2,butterworth_cutoff_hz,velocity_ms,displacement_m,translation_world_x_m,translation_world_y_m,translation_world_z_m
0.000000,-1.990520,53.828053,-0.086625,0.891558,-0.015146,0.452596,0.007188,1.000000,53.860659,-0.033442,0.999315,0.015872,0.909429,91.916694,91.916694,0.310807,0.091825,12.209386,0.378334,0.064435,2.052064,2.052064,4.000000,0.000000,0.000000,0.000000,0.000000,0.000000
0.047619,-2.387431,53.429274,-0.428002,0.893091,-0.016930,0.449516,0.006030,1.000000,53.471346,-0.037633,0.999202,0.013403,0.767954,92.156918,92.156918,0.004984,0.007490,11.363449,0.072511,-0.019900,1.206128,1.333863,4.000000,0.000000,0.000000,0.000000,0.000000,0.000000
0.095238,-3.247626,53.640720,-1.136288,0.892150,-0.020815,0.451242,0.003939,1.000000,53.710636,-0.046078,0.998900,0.008720,0.499648,92.641123,92.641123,-0.006338,-0.010611,11.080713,0.061189,-0.038001,0.923391,0.669767,4.000000,0.000000,0.000000,0.000000,0.000000,0.000000
0.142857,-3.395672,53.226153,-1.265253,0.893752,-0.021544,0.448032,0.003405,1.000000,53.302956,-0.048029,0.998817,0.007590,0.434881,92.752988,92.752988,-0.013889,0.005699,10.130143,0.053639,-0.021692,-0.027179,0.155596,4.000000,0.000000,0.000000,0.000000,0.000000,0.000000
0.190476,-2.474788,53.119304,-0.531747,0.894296,-0.017241,0.447110,0.005506,1.000000,53.163729,-0.038530,0.999182,0.012304,0.705009,92.208343,92.208343,-0.006264,-0.039389,9.843754,0.061264,-0.066779,-0.313567,-0.098800,4.000000,0.000000,0.000000,0.000000,0.000000,0.000000
0.238095,-2.094177,53.532316,-0.223968,0.892717,-0.015436,0.450306,0.006485,1.000000,53.566583,-0.034255,0.999309,0.014391,0.824588,91.963268,91.963268,-0.035688,0.003136,10.122830,0.031840,-0.024254,-0.034491,-0.182551,4.000000,0.000000,0.000000,0.000000,0.000000,0.000000
0.285714,-1.838428,53.963441,-0.006243,0.891037,-0.014272,0.453649,0.007230,1.000000,53.992299,-0.031440,0.999379,0.015928,0.912631,91.801918,91.801918,-0.112238,0.020899,10.096633,-0.044710,-0.006491,-0.060689,-0.371304,4.000000,0.000000,0.000000,0.000000,0.000000,0.000000
0.333333,-1.619349,54.377286,0.188054,0.889406,-0.013319,0.456855,0.007916,1.000000,54.402513,-0.029138,0.999425,0.017318,0.992298,91.669959,91.669959,-0.184284,0.048263,9.184837,-0.116756,0.020873,-0.972484,-0.752863,4.000000,0.000000,0.000000,0.000000,0.000000,0.000000
0.380952,-1.290946,54.769668,0.482430,0.887851,-0.011939,0.459889,0.008920,1.000000,54.791096,-0.025947,0.999475,0.019385,1.110744,91.487122,91.487122,-0.304654,0.106619,8.828795,-0.237127,0.079229,-1.328526,-1.157540,4.000000,0.000000,0.000000,0.000000,0.000000,0.000000
0.428571,-1.128355,55.160018,0.649971,0.886282,-0.011353,0.462907,0.009586,1.000000,55.180579,-0.024514,0.999485,0.020698,1.185971,91.404982,91.404982,-0.327711,0.039971,8.712674,-0.260184,0.012581,-1.444647,-1.529393,4.000000,0.000000,0.000000,0.000000,0.000000,0.000000
0.476190,-1.089812,55.541149,0.716436,0.884735,-0.011328,0.465849,0.009963,1.000000,55.562053,-0.024303,0.999476,0.021375,1.224788,91.392931,91.392931,-0.332810,0.021886,8.373822,-0.265283,-0.005504,-1.783499,-2.030280,4.000000,0.000000,0.000000,0.000000,0.000000,0.000000
0.523810,-1.052551,55.901124,0.785923,0.883265,-0.011328,0.468623,0.010363,1.000000,55.922528,-0.024160,0.999464,0.022102,1.266470,91.384734,91.384734,-0.260620,0.030358,7.488736,-0.193093,0.002968,-2.668585,-2.689601,4.000000,0.000000,0.000000,0.000000,0.000000,0.000000
0.571429,-1.003115,56.253174,0.879328,0.881817,-0.011337,0.471330,0.010894,1.000000,56.275392,-0.024040,0.999444,0.023100,1.323633,91.377889,91.377889,-0.294995,0.007915,6.763809,-0.227468,-0.019475,-3.393513,-3.203427,4.000000,0.000000,0.000000,0.000000,0.000000,0.000000
0.619048,-1.055741,56.583520,0.895896,0.880447,-0.011817,0.473864,0.011250,1.000000,56.607310,-0.024924,0.999408,0.023728,1.359623,91.428580,91.428580,-0.451696,-0.082392,6.799897,-0.384169,-0.109782,-3.357425,-3.205995,4.000000,-0.100214,-0.034250,0.000000,0.000000,-0.034250
0.666667,-0.979127,56.900076,1.028154,0.879129,-0.011786,0.476288,0.011959,1.000000,56.925088,-0.024731,0.999379,0.025093,1.437847,91.417566,91.417566,-0.877724,-0.075798,7.530598,-0.810196,-0.103188,-2.626723,-2.635475,4.000000,-0.173260,-0.071978,0.000000,0.000000,-0.071978
0.714286,-0.860541,57.199111,1.195408,0.877877,-0.011586,0.478577,0.012753,1.000000,57.225445,-0.024194,0.999353,0.026631,1.526017,91.386855,91.386855,-1.327623,-0.102195,8.584878,-1.260096,-0.129585,-1.572443,-1.741919,4.000000,-0.203756,-0.111158,0.000000,0.000000,-0.111158
0.761905,-0.726987,57.482621,1.329185,0.876688,-0.011140,0.480749,0.013220,1.000000,57.509309,-0.023156,0.999354,0.027482,1.574773,91.327371,91.327371,-1.334098,-0.051082,9.212277,-1.266571,-0.078472,-0.945044,-0.817143,4.000000,-0.190215,-0.149694,0.000000,0.000000,-0.149694
0.809524,-0.578839,56.896101,1.350282,0.879149,-0.010054,0.476270,0.012766,1.000000,56.920298,-0.021098,0.999418,0.026789,1.535087,91.209329,91.209329,1.428479,0.032891,10.112940,1.496007,0.005501,-0.044381,-0.064582,4.000000,-0.140838,-0.185878,0.000000,0.000000,-0.185878
0.857143,-0.467856,56.360410,1.509965,0.881357,-0.009821,0.472154,0.013543,1.000000,56.386920,-0.020788,0.999373,0.028664,1.642576,91.191613,91.191613,2.113532,0.255438,10.589465,2.181060,0.228048,0.432144,0.333628,4.000000,-0.072498,-0.218808,0.000000,0.000000,-0.218808
0.904762,-0.390365,56.655333,1.637326,0.880130,-0.009778,0.474419,0.014193,1.000000,56.683836,-0.020597,0.999341,0.029897,1.713232,91.180734,91.180734,-1.131895,0.109029,10.636707,-1.064368,0.081639,0.479386,0.276579,4.000000,-0.006875,-0.248613,0.000000,0.000000,-0.248613
0.952381,-0.609100,56.930018,1.435986,0.878995,-0.010645,0.476519,0.013549,1.000000,56.957226,-0.022324,0.999347,0.028415,1.628285,91.279710,91.279710,-1.840824,-0.123107,9.862250,-1.773297,-0.150497,-0.295071,-0.088452,4.000000,0.041365,-0.276120,0.000000,0.000000,-0.276120
1.000000,-0.832815,57.185943,1.213298,0.877932,-0.011448,0.478477,0.012774,1.000000,57.212092,-0.023910,0.999358,0.026681,1.528869,91.370586,91.370586,-1.447572,-0.217321,9.697531,-1.380045,-0.244711,-0.459790,-0.443790,4.000000,0.072685,-0.302137,0.000000,0.000000,-0.302137
1.047619,-1.434264,57.394195,0.659535,0.877053,-0.013742,0.480070,0.011058,1.000000,57.422306,-0.028606,0.999326,0.023019,1.318981,91.639633,91.639633,-0.568846,-0.262595,9.556038,-0.501318,-0.289985,-0.601283,-0.564776,4.000000,0.098243,-0.326936,0.000000,0.000000,-0.326936
1.095238,-2.068397,57.598024,0.146547,0.876160,-0.016433,0.481639,0.009815,1.000000,57.634785,-0.034091,0.999211,0.020363,1.166809,91.954079,91.954079,-0.442931,-0.243287,9.490040,-0.375403,-0.270677,-0.667282,-0.458841,4.000000,0.128846,-0.350278,0.000000,0.000000,-0.350278
1.142857,-2.286837,57.827315,0.026532,0.875173,-0.017580,0.483391,0.009851,1.000000,57.869148,-0.036336,0.999132,0.020361,1.166665,92.082773,92.082773,-1.245341,-0.159268,10.215098,-1.177813,-0.186658,0.057777,-0.334589,4.000000,0.165366,-0.371881,0.000000,0.000000,-0.371881
1.190476,-2.528375,58.053358,-0.136565,0.874193,-0.018713,0.485121,0.009663,1.000000,58.100738,-0.038538,0.999059,0.019900,1.140290,92.209039,92.209039,-1.503864,-0.063716,9.617534,-1.436336,-0.091106,-0.539787,-0.397495,4.000000,0.198890,-0.391888,0.000000,0.000000,-0.391888
1.238095,-2.591432,58.293790,-0.122345,0.873162,-0.019229,0.486947,0.010081,1.000000,58.343663,-0.039450,0.999007,0.020682,1.185098,92.261415,92.261415,-1.709672,0.021249,9.287062,-1.642144,-0.006141,-0.870260,-0.693558,4.000000,0.218316,-0.410969,0.000000,0.000000,-0.410969
1.285714,-2.558899,58.549644,-0.041177,0.872071,-0.019301,0.488884,0.010605,1.000000,58.599682,-0.039440,0.998987,0.021671,1.241757,92.260887,92.260887,-1.806644,0.097269,9.175405,-1.739116,0.069879,-0.981916,-1.253260,4.000000,0.211090,-0.430395,0.000000,0.000000,-0.430395
1.333333,-2.587516,58.819066,-0.042336,0.870914,-0.019487,0.490931,0.010765,1.000000,58.869927,-0.039654,0.998973,0.021906,1.255217,92.273153,92.273153,-1.304453,0.129727,8.498386,-1.236926,0.102337,-1.658936,-2.054401,4.000000,0.165713,-0.451982,0.000000,0.000000,-0.451982
1.380952,-2.423334,59.094784,0.141433,0.869740,-0.019004,0.493010,0.011501,1.000000,59.143112,-0.038509,0.998986,0.023305,1.335425,92.207531,92.207531,-0.619425,0.113937,6.798069,-0.551897,0.086547,-3.359252,-2.705851,4.000000,0.089316,-0.477206,0.000000,0.000000,-0.477206
1.428571,-2.068316,59.370834,0.499756,0.868569,-0.017839,0.495084,0.012726,1.000000,59.414494,-0.035997,0.999022,0.025680,1.471540,92.063614,92.063614,-0.592767,0.160692,7.345263,-0.525240,0.133302,-2.812058,-2.697030,4.000000,0.013339,-0.506049,0.000000,0.000000,-0.506049
1.476190,-1.796634,59.674079,0.779523,0.867264,-0.016984,0.497370,0.013700,1.000000,59.715464,-0.034114,0.999039,0.027519,1.576920,91.955702,91.955702,-0.625166,0.104380,8.193104,-0.557638,0.076990,-1.964218,-2.045812,4.000000,-0.031629,-0.537032,0.000000,0.000000,-0.537032
1.523810,-1.465001,59.997977,1.123925,0.865859,-0.015974,0.499811,0.014885,1.000000,60.038099,-0.031930,0.999047,0.029753,1.704955,91.830604,91.830604,-0.830579,0.189684,9.094694,-0.763052,0.162294,-1.062628,-1.280807,4.000000,-0.040167,-0.568423,0.000000,0.000000,-0.568423
1.571429,-1.359669,60.331199,1.252065,0.864399,-0.015748,0.502323,0.015408,1.000000,60.371689,-0.031320,0.999040,0.030643,1.756007,91.795613,91.795613,-1.136574,0.103106,9.537658,-1.069046,0.075716,-0.619664,-0.831174,4.000000,-0.027294,-0.599200,0.000000,0.000000,-0.599200
1.619048,-1.329179,60.669066,1.312862,0.862909,-0.015796,0.504866,0.015745,1.000000,60.710306,-0.031257,0.999026,0.031156,1.785416,91.792070,91.792070,-1.024235,0.011240,9.191979,-0.956708,-0.016150,-0.965342,-0.677040,4.000000,-0.007081,-0.629015,0.000000,0.000000,-0.629015
1.666667,-1.420938,60.993928,1.252850,0.861470,-0.016232,0.507307,0.015712,1.000000,61.036035,-0.031964,0.999010,0.030941,1.773070,91.832591,91.832591,-1.057819,-0.176635,9.551627,-0.990292,-0.204025,-0.605694,-0.574119,4.000000,0.018032,-0.657634,0.000000,0.000000,-0.657634
1.714286,-1.551753,61.311888,1.171328,0.860050,-0.016859,0.509689,0.015696,1.000000,61.355560,-0.033044,0.998980,0.030764,1.762950,91.894533,91.894533,-1.100502,-0.243905,9.146525,-1.032974,-0.271295,-1.010796,-0.549010,4.000000,0.044341,-0.685000,0.000000,0.000000,-0.685000
1.761905,-1.921886,61.556384,0.869877,0.858944,-0.018292,0.511520,0.015103,1.000000,61.603558,-0.035722,0.998926,0.029493,1.690085,92.048056,92.048056,-1.681411,-1.353964,11.540299,-1.613883,-1.381354,1.382978,-0.800131,4.000000,0.058692,-0.711682,0.000000,0.000000,-0.711682
1.809524,2.049748,61.660240,4.629927,0.858223,-0.005351,0.512615,0.025520,1.000000,61.764755,-0.010426,0.998709,0.049720,2.849914,90.598105,90.598105,0.867204,9.786628,6.989036,0.934732,9.759238,-3.168286,-0.832106,4.000000,0.071521,-0.737754,0.000000,0.000000,-0.737754
1.857143,6.375788,61.623035,8.698612,0.857219,0.008839,0.513572,0.036630,1.000000,61.988584,0.017165,0.997319,0.071132,4.079011,89.013960,89.013960,-1.191657,1.355030,9.988618,-1.124129,1.327640,-0.168704,0.180226,4.000000,0.132556,-0.760920,0.000000,0.000000,-0.760920
1.904762,10.116964,61.560867,12.251895,0.855717,0.020921,0.514929,0.046460,1.000000,62.321935,0.040432,0.995140,0.089788,5.151420,87.673397,87.673397,-2.678420,0.206716,13.745318,-2.610893,0.179326,3.587997,1.886462,4.000000,0.274840,-0.777310,0.000000,0.000000,-0.777310
1.952381,13.131654,61.540181,15.125857,0.853865,0.030501,0.516749,0.054356,1.000000,62.730798,0.058601,0.992804,0.104432,5.994446,86.621994,86.621994,-1.446096,-0.225425,12.211055,-1.378568,-0.252815,2.053734,3.166573,4.000000,0.478081,-0.784022,0.000000,0.000000,-0.784022
2.000000,15.923867,61.516935,17.842810,0.851737,0.039044,0.518822,0.061998,1.000000,63.197813,0.074516,0.990175,0.118323,6.795313,85.696302,85.696302,-2.720485,-0.384118,14.446579,-2.652958,-0.411508,4.289258,3.507253,4.000000,0.697546,-0.780283,0.000000,0.000000,-0.780283
2.047619,17.365659,61.560093,19.201393,0.850281,0.043512,0.520425,0.065472,1.000000,63.515458,0.082671,0.988783,0.124394,7.145787,85.220689,85.220689,-2.048019,-0.704905,13.263303,-1.980492,-0.732295,3.105982,3.038215,4.000000,0.894675,-0.767157,0.000000,0.000000,-0.767157
2.095238,18.393438,61.664723,20.224914,0.848847,0.046271,0.522176,0.068186,1.000000,63.826951,0.087530,0.987776,0.128984,7.410896,84.936085,84.936085,-1.530567,-0.683078,11.670198,-1.463039,-0.710468,1.512876,2.215565,4.000000,1.052631,-0.746509,0.000000,0.000000,-0.746509
2.142857,18.678322,61.852876,20.567456,0.847749,0.046437,0.523830,0.069051,1.000000,64.064726,0.087552,0.987616,0.130187,7.480388,84.934004,84.934004,-1.659032,-0.799908,12.002373,-1.591505,-0.827298,1.845052,1.488422,4.000000,1.175961,-0.719988,0.000000,0.000000,-0.719988
2.190476,18.586557,62.103550,20.563908,0.846748,0.045265,0.525562,0.068948,1.000000,64.280570,0.085086,0.987909,0.129602,7.446615,85.077410,85.077410,-1.545626,-0.636776,11.125538,-1.478098,-0.664166,0.968216,0.937352,4.000000,1.273049,-0.688845,0.000000,0.000000,-0.688845
2.238095,18.010945,62.418430,20.137527,0.845908,0.042340,0.527301,0.067827,1.000000,64.461263,0.079389,0.988698,0.127177,7.306483,85.409221,85.409221,-1.406684,-0.746543,10.420757,-1.339156,-0.773933,0.263435,0.490254,4.000000,1.348847,-0.654091,0.000000,0.000000,-0.654091
2.285714,17.280912,62.766442,19.620008,0.845003,0.038659,0.529174,0.066713,1.000000,64.655458,0.072291,0.989551,0.124753,7.166471,85.821692,85.821692,-1.660816,-0.537865,10.609350,-1.593288,-0.565255,0.452029,0.142319,4.000000,1.408077,-0.616518,0.000000,0.000000,-0.616518
2.333333,16.419683,63.125144,18.984004,0.844117,0.034575,0.531037,0.065353,1.000000,64.845183,0.064486,0.990447,0.121891,7.001225,86.274866,86.274866,-1.652992,-0.336085,9.710353,-1.585465,-0.363476,-0.446968,-0.107296,4.000000,1.455420,-0.576690,0.000000,0.000000,-0.576690
2.380952,15.328784,63.485773,18.168343,0.843327,0.029675,0.532776,0.063782,1.000000,65.013653,0.055220,0.991395,0.118686,6.816262,86.811968,86.811968,-1.714475,-0.179045,9.958063,-1.646948,-0.206435,-0.199258,-0.315701,4.000000,1.492839,-0.535080,0.000000,0.000000,-0.535080
2.428571,14.019798,63.848458,17.151960,0.842608,0.024159,0.534423,0.061807,1.000000,65.166815,0.044860,0.992379,0.114770,6.590352,87.411712,87.411712,-1.587997,-0.140619,9.879205,-1.520469,-0.168009,-0.278116,-0.593017,4.000000,1.517053,-0.492317,0.000000,0.000000,-0.492317
2.476190,12.762429,64.189830,16.206511,0.841838,0.018787,0.536032,0.060212,1.000000,65.330498,0.034808,0.993148,0.111559,6.405186,87.992711,87.992711,-0.798539,0.187794,8.709962,-0.731011,0.160404,-1.447359,-0.958520,4.000000,1.523862,-0.449229,0.000000,0.000000,-0.449229
2.523810,11.625876,64.492375,15.345187,0.841096,0.014023,0.537499,0.058784,1.000000,65.487893,0.025925,0.993739,0.108680,6.239240,88.505570,88.505570,-1.064201,0.392381,9.179356,-0.996673,0.364991,-0.977966,-1.340215,4.000000,1.512494,-0.406683,0.000000,0.000000,-0.406683
2.571429,10.397380,64.735492,14.394153,0.840605,0.009134,0.538537,0.057256,1.000000,65.591907,0.016864,0.994254,0.105707,6.067914,89.028269,89.028269,-0.842331,0.611362,8.364758,-0.774804,0.583971,-1.792563,-1.707764,4.000000,1.483625,-0.365512,0.000000,0.000000,-0.365512
2.619048,9.262539,64.945203,13.515004,0.840153,0.004676,0.539441,0.055896,1.000000,65.687431,0.008623,0.994637,0.103063,5.915604,89.503309,89.503309,-1.223204,0.605889,8.281679,-1.155677,0.578499,-1.875642,-1.968811,4.000000,1.442324,-0.326308,0.000000,0.000000,-0.326308
2.666667,7.883935,65.154336,12.331937,0.839786,-0.000101,0.540276,0.053495,1.000000,65.764973,-0.000186,0.995134,0.098532,5.654626,90.010707,90.010707,-1.125125,0.416449,7.910448,-1.057597,0.389059,-2.246874,-1.922945,4.000000,1.403208,-0.288966,0.000000,0.000000,-0.288966
2.714286,7.591140,65.042746,12.112258,0.840401,-0.001090,0.539330,0.053374,1.000000,65.635098,-0.002012,0.995137,0.098482,5.651788,90.115832,90.115832,-0.255953,0.566545,8.660080,-0.188425,0.539155,-1.497241,-1.519204,4.000000,1.383318,-0.252571,0.000000,0.000000,-0.252571
2.761905,6.389122,65.225892,11.042837,0.840009,-0.005055,0.540143,0.051026,1.000000,65.717759,-0.009316,0.995524,0.094045,5.396352,90.536147,90.536147,-1.317498,-0.035427,9.329284,-1.249971,-0.062817,-0.828037,-1.006776,4.000000,1.387828,-0.215962,0.000000,0.000000,-0.215962
2.809524,5.348282,65.358252,10.052154,0.839765,-0.008132,0.540712,0.048567,1.000000,65.769373,-0.014978,0.995879,0.089450,5.131967,90.861654,90.861654,-2.263207,-0.077600,9.850774,-2.195679,-0.104990,-0.306547,-0.639738,4.000000,1.409817,-0.178305,0.000000,0.000000,-0.178305
2.857143,4.127632,65.467596,8.835289,0.839649,-0.011420,0.541114,0.045336,1.000000,65.793903,-0.021027,0.996288,0.083472,4.788173,91.209057,91.209057,-2.384024,-0.189374,9.425418,-2.316497,-0.216764,-0.731904,-0.297369,4.000000,1.448109,-0.138825,0.000000,0.000000,-0.138825
2.904762,3.162113,65.527851,7.880131,0.839627,-0.014025,0.541288,0.042863,1.000000,65.798575,-0.025821,0.996547,0.078913,4.526095,91.484232,91.484232,-2.714683,-0.279630,9.989640,-2.647155,-0.307020,-0.167681,0.263505,4.000000,1.513110,-0.096250,0.000000,0.000000,-0.096250
2.952381,1.856731,65.570690,6.565209,0.839718,-0.017403,0.541314,0.039374,1.000000,65.779306,-0.032049,0.996853,0.072509,4.158123,91.841431,91.841431,-2.372002,-0.272963,9.646968,-2.304474,-0.300353,-0.510353,0.465735,4.000000,1.587740,-0.050121,0.000000,0.000000,-0.050121
3.000000,0.942031,65.591686,5.644092,0.839777,-0.019765,0.541312,0.036938,1.000000,65.766773,-0.036404,0.997019,0.068034,3.901073,92.091080,92.091080,-1.974827,-0.203199,9.882718,-1.907300,-0.230589,-0.274603,-1.672070,4.000000,1.560570,-0.005286,0.000000,0.000000,-0.005286
3.047619,-0.013198,65.599442,4.652525,0.839874,-0.022084,0.541254,0.034181,1.000000,65.746370,-0.040687,0.997185,0.062974,3.610507,92.336503,92.336503,-1.645148,-0.221878,9.804734,-1.577621,-0.249268,-0.352587,-7.180216,4.000000,1.271108,0.025766,0.000000,0.000000,0.025766
3.095238,-1.358532,65.296428,3.271843,0.841414,-0.025378,0.538937,0.030429,1.000000,65.420566,-0.046962,0.997308,0.056309,3.227984,92.696022,92.696022,0.667222,-9.348733,-16.168756,0.734750,-9.376123,-26.326077,-13.158243,4.000000,0.696977,0.029478,0.000000,0.000000,0.029478
3.142857,1.393589,65.119407,5.879044,0.841996,-0.017360,0.537956,0.036683,1.000000,65.297110,-0.032180,0.997167,0.067996,3.898864,91.848363,91.848363,-1.103752,-1.144665,5.989500,-1.036224,-1.172055,-4.167822,-15.738026,4.000000,0.000000,0.000000,0.000000,0.000000,0.000000
3.190476,-2.445563,64.234003,1.910268,0.846465,-0.026932,0.531154,0.025459,1.000000,64.341616,-0.050582,0.997575,0.047815,2.740660,92.902676,92.902676,6.975312,-2.529889,-11.196077,7.042840,-2.557279,-21.353399,-13.595851,4.000000,-0.602790,-0.035635,0.000000,0.000000,-0.035635
3.238095,-1.295615,64.412012,2.802692,0.845683,-0.022597,0.532538,0.026715,1.000000,64.509666,-0.042341,0.997848,0.050058,2.869338,92.429741,92.429741,-0.855424,1.177707,1.804664,-0.787897,1.150317,-8.352657,-7.255405,4.000000,-0.903655,-0.085597,0.000000,0.000000,-0.085597
3.285714,-2.758887,64.113895,1.344257,0.847067,-0.026626,0.530332,0.022715,1.000000,64.211804,-0.050097,0.997829,0.042740,2.449541,92.874166,92.874166,-0.523109,-6.800011,14.978126,-0.455582,-6.827401,4.820804,-0.040640,4.000000,-0.860959,-0.133527,0.000000,0.000000,-0.133527
3.333333,-1.265951,64.068531,2.665672,0.847314,-0.021700,0.530033,0.025575,1.000000,64.158643,-0.040859,0.998004,0.048156,2.760218,92.344398,92.344398,-4.577162,-0.234100,14.362934,-4.509635,-0.261490,4.205612,3.460009,4.000000,-0.651566,-0.171484,0.000000,0.000000,-0.171484
3.380952,-0.735363,63.810239,3.125274,0.848499,-0.019858,0.528158,0.026540,1.000000,63.902471,-0.037525,0.998036,0.050151,2.874653,92.153212,92.153212,-2.980010,-1.055634,11.572340,-2.912483,-1.083024,1.415018,2.702368,4.000000,-0.478251,-0.201189,0.000000,0.000000,-0.201189
3.428571,-0.269239,63.465632,3.526406,0.850067,-0.018180,0.525647,0.027404,1.000000,63.562098,-0.034519,0.998049,0.052033,2.982602,91.980891,91.980891,-3.094610,0.003518,9.740763,-3.027083,-0.023873,-0.416558,0.716111,4.000000,-0.399519,-0.227145,0.000000,0.000000,-0.227145
3.476190,-0.049377,63.007029,3.658077,0.852166,-0.017046,0.522273,0.027438,1.000000,63.103815,-0.032575,0.998093,0.052436,3.005716,91.869321,91.869321,-2.699772,0.134000,10.048649,-2.632245,0.106610,-0.108673,-0.366464,4.000000,-0.372339,-0.251806,0.000000,0.000000,-0.251806
3.523810,0.138580,62.461534,3.748639,0.854648,-0.015925,0.518242,0.027341,1.000000,62.558183,-0.030671,0.998141,0.052659,3.018516,91.760047,91.760047,-2.470064,0.176446,9.883886,-2.402536,0.149056,-0.273436,-0.550378,4.000000,-0.353916,-0.275591,0.000000,0.000000,-0.275591
3.571429,0.304721,61.921800,3.834894,0.857081,-0.014934,0.514239,0.027325,1.000000,62.019160,-0.028988,0.998172,0.053039,3.040347,91.663485,91.663485,-2.394034,0.121198,9.759701,-2.326507,0.093808,-0.397620,-0.501707,4.000000,-0.333176,-0.298387,0.000000,0.000000,-0.298387
3.619048,0.514489,61.423510,3.958163,0.859305,-0.013780,0.510543,0.027399,1.000000,61.522680,-0.026941,0.998201,0.053570,3.070810,91.546041,91.546041,-2.244942,0.174285,9.756446,-2.177415,0.146895,-0.400875,-0.449049,4.000000,-0.309928,-0.320077,0.000000,0.000000,-0.320077
3.666667,0.752177,60.988737,4.113929,0.861225,-0.012561,0.507319,0.027599,1.000000,61.091232,-0.024716,0.998218,0.054305,3.112956,91.418367,91.418367,-2.385356,0.393863,9.655763,-2.317829,0.366473,-0.501558,-0.211946,4.000000,-0.275390,-0.340121,0.000000,0.000000,-0.340121
3.714286,0.759254,60.656697,4.116872,0.862690,-0.012422,0.504823,0.027659,1.000000,60.760040,-0.024562,0.998201,0.054691,3.135115,91.409537,91.409537,-2.862092,0.192568,10.309555,-2.794564,0.165178,0.152233,0.316513,4.000000,-0.215687,-0.357323,0.000000,0.000000,-0.357323
3.761905,1.223689,60.171830,4.570914,0.864751,-0.010757,0.501239,0.029155,1.000000,60.291528,-0.021420,0.998084,0.058054,3.328114,91.229451,91.229451,-3.488577,-0.001750,11.462696,-3.421049,-0.029140,1.305375,0.881505,4.000000,-0.129080,-0.370401,0.000000,0.000000,-0.370401
3.809524,1.054720,59.616717,4.408709,0.867190,-0.011139,0.497019,0.028801,1.000000,59.732529,-0.022369,0.998075,0.057837,3.315650,91.283897,91.283897,-3.254989,-0.373064,11.283063,-3.187462,-0.400454,1.125741,1.138843,4.000000,-0.030218,-0.378771,0.000000,0.000000,-0.378771
3.857143,0.989931,59.128106,4.363352,0.869304,-0.011274,0.493306,0.028851,1.000000,59.244280,-0.022808,0.998034,0.058371,3.346314,91.309151,91.309151,-3.236328,-0.189725,11.160264,-3.168800,-0.217115,1.002942,1.064639,4.000000,0.065110,-0.382601,0.000000,0.000000,-0.382601
3.904762,0.755194,58.638866,4.159193,0.871427,-0.012027,0.489554,0.028414,1.000000,58.750177,-0.024518,0.998020,0.057925,3.320735,91.407282,91.407282,-2.878578,-0.468092,10.924210,-2.811051,-0.495482,0.766889,0.872688,4.000000,0.151298,-0.382328,0.000000,0.000000,-0.382328
3.952381,0.642723,58.159098,4.075654,0.873476,-0.012384,0.485883,0.028352,1.000000,58.269701,-0.025436,0.997979,0.058234,3.338442,91.459982,91.459982,-2.741001,-0.332041,10.909135,-2.673473,-0.359431,0.751813,0.697383,4.000000,0.229137,-0.378347,0.000000,0.000000,-0.378347
4.000000,0.551690,57.689411,4.001863,0.875467,-0.012630,0.482285,0.028262,1.000000,57.799323,-0.026134,0.997946,0.058480,3.352587,91.500106,91.500106,-2.712733,-0.341114,10.774491,-2.645205,-0.368504,0.617170,0.542891,4.000000,0.299620,-0.371011,0.000000,0.000000,-0.371011
4.047619,0.572758,57.220807,4.031390,0.877426,-0.012457,0.478703,0.028486,1.000000,57.333177,-0.025968,0.997898,0.059382,3.404328,91.490676,91.490676,-2.829044,-0.350323,10.488283,-2.761517,-0.377713,0.330961,0.423400,4.000000,0.364413,-0.360589,0.000000,0.000000,-0.360589
4.095238,0.811226,56.770706,4.269387,0.879263,-0.011484,0.475289,0.029406,1.000000,56.892845,-0.024109,0.997801,0.061735,3.539381,91.384100,91.384100,-2.778175,-0.255589,10.451426,-2.710647,-0.282979,0.294104,0.375991,4.000000,0.426948,-0.347189,0.000000,0.000000,-0.347189
4.142857,1.010285,56.344476,4.468916,0.880990,-0.010641,0.472049,0.030209,1.000000,56.475941,-0.022490,0.997706,0.063849,3.660784,91.291335,91.291335,-2.715338,-0.275199,10.522691,-2.647810,-0.302589,0.365369,0.330602,4.000000,0.487322,-0.330914,0.000000,0.000000,-0.330914
4.190476,1.158696,55.933095,4.632872,0.882646,-0.010030,0.468910,0.030959,1.000000,56.073483,-0.021339,0.997600,0.065864,3.776479,91.225399,91.225399,-2.682875,-0.290650,10.432684,-2.615348,-0.318040,0.275363,0.112424,4.000000,0.537307,-0.312259,0.000000,0.000000,-0.312259
4.238095,1.272180,55.531711,4.769481,0.884253,-0.009568,0.465836,0.031649,1.000000,55.680497,-0.020488,0.997491,0.067770,3.885896,91.176673,91.176673,-2.494106,-0.295965,9.842736,-2.426579,-0.323355,-0.314585,-0.350453,4.000000,0.565250,-0.292273,0.000000,0.000000,-0.292273
4.285714,1.365754,55.135953,4.896542,0.885826,-0.009213,0.462797,0.032354,1.000000,55.293334,-0.019855,0.997369,0.069726,3.998234,91.140433,91.140433,-2.321255,-0.208809,9.112779,-2.253727,-0.236199,-1.044543,-0.905406,4.000000,0.566766,-0.272216,0.000000,0.000000,-0.272216
4.333333,1.538168,54.733947,5.084937,0.887400,-0.008481,0.459723,0.033227,1.000000,54.903323,-0.018397,0.997229,0.072077,4.133285,91.056903,91.056903,-2.174102,-0.038799,8.955291,-2.106575,-0.066189,-1.202030,-1.303340,4.000000,0.549333,-0.252988,0.000000,0.000000,-0.252988
4.380952,1.645284,54.340406,5.214010,0.888940,-0.008008,0.456697,0.033913,1.000000,54.519355,-0.017484,0.997102,0.074041,4.246124,91.004575,91.004575,-2.037021,0.134341,8.381409,-1.969493,0.106951,-1.775912,-1.402464,4.000000,0.527180,-0.234815,0.000000,0.000000,-0.234815
4.428571,1.872861,53.946039,5.441677,0.890449,-0.006979,0.453690,0.034896,1.000000,54.140681,-0.015336,0.996938,0.076680,4.397772,90.881317,90.881317,-2.470969,0.403324,9.048643,-2.403442,0.375934,-1.108678,-1.319387,4.000000,0.508983,-0.217509,0.000000,0.000000,-0.217509
4.476190,1.784543,53.568422,5.348145,0.891957,-0.007135,0.450735,0.034634,1.000000,53.759541,-0.015781,0.996937,0.076604,4.393371,90.906883,90.906883,-2.407450,0.373232,9.181277,-2.339922,0.345842,-0.976044,-1.337220,4.000000,0.489937,-0.201109,0.000000,0.000000,-0.201109
4.523810,1.620381,53.227160,5.199351,0.893326,-0.007688,0.448039,0.034220,1.000000,53.411581,-0.017107,0.996950,0.076144,4.366952,90.983041,90.983041,-2.067326,0.261525,8.154137,-1.999798,0.234135,-2.003185,-1.552089,4.000000,0.460659,-0.186104,0.000000,0.000000,-0.186104
4.571429,1.240530,52.908743,4.860195,0.894636,-0.009204,0.445469,0.033140,1.000000,53.076485,-0.020601,0.997033,0.074173,4.253721,91.183701,91.183701,-2.219749,-0.194021,8.608972,-2.152221,-0.221411,-1.548350,-1.821351,4.000000,0.418559,-0.173104,0.000000,0.000000,-0.173104
4.619048,0.607930,52.585413,4.292398,0.895989,-0.011835,0.442818,0.031226,1.000000,52.728423,-0.026652,0.997169,0.070317,4.032223,91.530993,91.530993,-1.910141,-0.631258,8.017134,-1.842614,-0.658648,-2.140187,-2.019593,4.000000,0.367019,-0.162558,0.000000,0.000000,-0.162558
4.666667,0.081804,52.244101,3.847991,0.897362,-0.014141,0.440058,0.029830,1.000000,52.373007,-0.032045,0.997198,0.067597,3.875997,91.840586,91.840586,-1.883174,-0.859003,7.930213,-1.815647,-0.886393,-2.227109,-2.109050,4.000000,0.311219,-0.154669,0.000000,0.000000,-0.154669
4.714286,-0.330459,51.888116,3.517706,0.898756,-0.016020,0.437206,0.028861,1.000000,52.010072,-0.036537,0.997162,0.065824,3.774187,92.098462,92.098462,-2.162196,-0.987856,8.383656,-2.094669,-1.015246,-1.773666,-2.101102,4.000000,0.255798,-0.149419,0.000000,0.000000,-0.149419
4.761905,-0.588777,51.527322,3.338055,0.900136,-0.017285,0.434335,0.028463,1.000000,51.648200,-0.039680,0.997074,0.065340,3.746361,92.278969,92.278969,-2.043634,-0.832056,7.938443,-1.976106,-0.859446,-2.218878,-1.975099,4.000000,0.206376,-0.146522,0.000000,0.000000,-0.146522
4.809524,-0.507021,51.189330,3.467595,0.901393,-0.017059,0.431679,0.029197,1.000000,51.316386,-0.039397,0.996946,0.067430,3.866378,92.263029,92.263029,-2.403077,-0.311206,8.580354,-2.335550,-0.338596,-1.576968,-1.616204,4.000000,0.174045,-0.145166,0.000000,0.000000,-0.145166
4.857143,-0.288117,50.852944,3.712964,0.902625,-0.016179,0.429052,0.030337,1.000000,50.989389,-0.037588,0.996805,0.070481,4.041611,92.159505,92.159505,-2.638474,-0.045241,8.846660,-2.570947,-0.072631,-1.310662,-1.001109,4.000000,0.171004,-0.143953,0.000000,0.000000,-0.143953
4.904762,0.017667,50.519197,4.028842,0.903827,-0.014860,0.426461,0.031724,1.000000,50.668460,-0.034729,0.996643,0.074140,4.251801,91.995700,91.995700,-3.282354,0.249465,10.217778,-3.214827,0.222075,0.060457,-0.370097,4.000000,0.198012,-0.141455,0.000000,0.000000,-0.141455
4.952381,0.114880,50.207113,4.087293,0.904981,-0.014222,0.424018,0.031867,1.000000,50.358495,-0.033428,0.996630,0.074902,4.295608,91.921045,91.921045,-3.258534,0.644197,10.149399,-3.191006,0.616807,-0.007922,-0.010787,4.000000,0.242129,-0.136856,0.000000,0.000000,-0.136856
5.000000,0.207156,49.900202,4.137460,0.906111,-0.013589,0.421612,0.031967,1.000000,50.053435,-0.032123,0.996623,0.075566,4.333720,91.846101,91.846101,-3.226172,0.647295,9.923699,-3.158645,0.619905,-0.233622,0.033151,4.000000,0.288339,-0.130057,0.000000,0.000000,-0.130057
5.047619,0.080887,49.607830,3.954995,0.907218,-0.013836,0.419286,0.031028,1.000000,49.752570,-0.032891,0.996734,0.073760,4.229954,91.889986,91.889986,-3.260766,0.476678,10.204944,-3.193239,0.449288,0.047622,-0.158936,4.000000,0.325401,-0.121493,0.000000,0.000000,-0.121493
5.095238,-0.140490,49.342800,3.673099,0.908233,-0.014491,0.417163,0.029634,1.000000,49.475470,-0.034629,0.996888,0.070817,4.060897,91.989474,91.989474,-3.082508,0.254356,9.734436,-3.014980,0.226966,-0.422885,-0.551691,4.000000,0.343761,-0.112054,0.000000,0.000000,-0.112054
5.142857,-0.411974,49.079823,3.346524,0.909235,-0.015396,0.415052,0.028055,1.000000,49.200356,-0.036985,0.997041,0.067393,3.864261,92.124419,92.124419,-2.733948,-0.093216,8.950305,-2.666420,-0.120606,-1.207017,-1.004379,4.000000,0.340565,-0.102768,0.000000,0.000000,-0.102768
5.190476,-0.576234,48.807974,3.116426,0.910250,-0.015813,0.412885,0.026840,1.000000,48.920112,-0.038189,0.997166,0.064821,3.716565,92.193225,92.193225,-2.842582,-0.275096,8.818419,-2.775054,-0.302486,-1.338903,-1.276919,4.000000,0.324390,-0.094252,0.000000,0.000000,-0.094252
5.238095,-0.701006,48.513911,2.890775,0.911342,-0.015938,0.410550,0.025509,1.000000,48.617160,-0.038718,0.997327,0.061968,3.552769,92.223185,92.223185,-2.260557,-0.338085,8.870771,-2.193030,-0.365476,-1.286551,-1.289020,4.000000,0.307639,-0.086533,0.000000,0.000000,-0.086533
5.285714,-0.834332,48.198688,2.676525,0.912496,-0.016180,0.408043,0.024291,1.000000,48.294749,-0.039553,0.997452,0.059379,3.404140,92.270811,92.270811,-1.257078,-0.377049,9.099679,-1.189550,-0.404439,-1.057642,-1.163130,4.000000,0.296883,-0.079327,0.000000,0.000000,-0.079327
5.333333,-0.899008,47.905944,2.593510,0.913545,-0.016355,0.405708,0.023865,1.000000,48.000200,-0.040211,0.997467,0.058675,3.363759,92.308508,92.308508,-1.438069,-0.417973,9.142312,-1.370541,-0.445363,-1.015010,-1.022959,4.000000,0.292802,-0.072315,0.000000,0.000000,-0.072315
5.380952,-0.853611,47.626132,2.569454,0.914545,-0.015865,0.403488,0.023518,1.000000,47.717661,-0.039224,0.997537,0.058144,3.333289,92.251754,92.251754,-2.637787,-0.349590,9.214063,-2.570260,-0.376980,-0.943258,-0.874669,4.000000,0.295782,-0.065161,0.000000,0.000000,-0.065161
5.428571,-0.764063,47.364253,2.546957,0.915482,-0.015031,0.401418,0.023030,1.000000,47.451497,-0.037358,0.997661,0.057237,3.281258,92.144455,92.144455,-3.377724,-0.285082,9.402823,-3.310196,-0.312472,-0.754498,-0.694628,4.000000,0.307335,-0.057457,0.000000,0.000000,-0.057457
5.476190,-0.693378,47.098617,2.477259,0.916433,-0.014182,0.399318,0.022233,1.000000,47.179787,-0.035439,0.997826,0.055556,3.184762,92.034045,92.034045,-3.737649,-0.232351,9.751811,-3.670121,-0.259741,-0.405510,-0.540943,4.000000,0.326207,-0.048854,0.000000,0.000000,-0.048854
5.523810,-0.705223,46.840204,2.294132,0.917365,-0.013603,0.397270,0.020815,1.000000,46.912293,-0.034174,0.998047,0.052292,2.997491,91.961074,91.961074,-3.231805,-0.332876,9.614381,-3.164277,-0.360266,-0.542941,-0.499282,4.000000,0.347063,-0.039259,0.000000,0.000000,-0.039259
5.571429,-0.733040,46.598172,2.109625,0.918232,-0.013155,0.395348,0.019437,1.000000,46.662160,-0.033217,0.998242,0.049078,2.813106,91.905849,91.905849,-2.374092,-0.281001,9.533876,-2.306565,-0.308391,-0.623445,-0.591035,4.000000,0.363549,-0.028878,0.000000,0.000000,-0.028878
5.619048,-0.836134,46.386622,1.908379,0.918982,-0.013264,0.393658,0.018180,1.000000,46.444717,-0.033640,0.998370,0.046107,2.642664,91.929851,91.929851,-1.918172,-0.313593,9.396112,-1.850645,-0.340983,-0.761209,-0.807982,4.000000,0.369705,-0.018204,0.000000,0.000000,-0.018204
5.666667,-0.951893,46.205264,1.722778,0.919619,-0.013538,0.392207,0.017086,1.000000,46.259168,-0.034465,0.998459,0.043498,2.493021,91.976972,91.976972,-1.931198,-0.252633,9.000812,-1.863670,-0.280023,-1.156509,-1.152771,4.000000,0.359442,-0.008018,0.000000,0.000000,-0.008018
5.714286,-1.050293,46.073755,1.537135,0.920084,-0.013683,0.391159,0.015930,1.000000,46.123380,-0.034929,0.998562,0.040666,2.330628,92.003368,92.003368,-2.069691,-0.121231,8.560003,-2.002163,-0.148621,-1.597318,-1.606177,4.000000,0.327588,0.000650,0.000000,0.000000,0.000650
5.761905,-1.181079,45.965383,1.318970,0.920467,-0.013982,0.390297,0.014620,1.000000,46.011203,-0.035775,0.998659,0.037408,2.143808,92.051654,92.051654,-1.945344,-0.102145,8.283230,-1.877816,-0.129535,-1.874091,-2.070336,4.000000,0.273632,0.006749,0.000000,0.000000,0.006749
5.809524,-1.305323,45.882933,1.112136,0.920757,-0.014272,0.389645,0.013377,1.000000,45.925895,-0.036582,0.998742,0.034287,1.964901,92.097715,92.097715,-1.379122,-0.158063,7.377966,-1.311594,-0.185453,-2.779355,-2.351798,4.000000,0.206272,0.009641,0.000000,0.000000,0.009641
5.857143,-1.326396,45.818025,1.012797,0.920987,-0.014102,0.389133,0.012646,1.000000,45.858485,-0.036196,0.998817,0.032460,1.860121,92.075397,92.075397,-1.688633,-0.110840,8.274921,-1.621105,-0.138230,-1.882400,-2.279561,4.000000,0.142353,0.009488,0.000000,0.000000,0.009488
5.904762,-1.403287,45.790418,0.873460,0.921086,-0.014246,0.388920,0.011785,1.000000,45.829326,-0.036588,0.998872,0.030268,1.734514,92.097757,92.097757,-1.601281,-0.114858,7.843020,-1.533753,-0.142248,-2.314301,-1.827350,4.000000,0.099967,0.007318,0.000000,0.000000,0.007318
5.952381,-1.298002,45.772357,0.910560,0.921156,-0.013525,0.388782,0.011725,1.000000,45.808641,-0.034751,0.998942,0.030126,1.726378,91.992412,91.992412,-2.275545,-0.087093,9.050909,-2.208018,-0.114484,-1.106413,-1.185012,4.000000,0.088169,0.004585,0.000000,0.000000,0.004585
6.000000,-1.309271,45.754385,0.861250,0.921221,-0.013448,0.388642,0.011366,1.000000,45.789609,-0.034567,0.998975,0.029215,1.674111,91.981776,91.981776,-2.980522,-0.121770,9.927072,-2.912995,-0.149161,-0.230249,-0.743898,4.000000,0.097376,0.002291,0.000000,0.000000,0.002291
6.047619,-1.277706,45.762437,0.868816,0.921196,-0.013220,0.388709,0.011320,1.000000,45.796794,-0.033976,0.998999,0.029093,1.667128,91.947880,91.947880,-3.176269,-0.112347,9.229058,-3.108742,-0.139738,-0.928263,-0.727868,4.000000,0.107347,0.000472,0.000000,0.000000,0.000472
6.095238,-1.273807,45.765711,0.870163,0.921185,-0.013193,0.388735,0.011318,1.000000,45.799973,-0.033905,0.999002,0.029085,1.666696,91.943816,91.943816,-3.156958,-0.104348,9.097034,-3.089431,-0.131738,-1.060288,-0.932882,4.000000,0.107555,-0.001337,0.000000,0.000000,-0.001337
6.142857,-1.179460,45.780104,0.972409,0.921137,-0.012782,0.388849,0.011820,1.000000,45.814248,-0.032839,0.998999,0.030368,1.740228,91.882740,91.882740,-3.185705,-0.030125,9.041389,-3.118177,-0.057515,-1.115933,-1.073138,4.000000,0.101084,-0.003455,0.000000,0.000000,-0.003455
6.190476,-1.084494,45.793339,1.058036,0.921094,-0.012310,0.388956,0.012187,1.000000,45.827056,-0.031617,0.999010,0.031302,1.793750,91.812729,91.812729,-3.149938,0.089977,9.254981,-3.082410,0.062587,-0.902341,-1.087252,4.000000,0.093941,-0.005913,0.000000,0.000000,-0.005913
6.238095,-0.965668,45.806468,1.156487,0.921051,-0.011690,0.389064,0.012576,1.000000,45.839645,-0.030016,0.999028,0.032291,1.850465,91.720967,91.720967,-2.879041,-0.007792,8.913278,-2.811514,-0.035182,-1.244043,-1.012870,4.000000,0.090340,-0.008542,0.000000,0.000000,-0.008542
6.285714,-0.826635,45.838630,1.278614,0.920942,-0.010989,0.389326,0.013086,1.000000,45.871764,-0.028198,0.999038,0.033579,1.924293,91.616770,91.616770,-3.078989,0.061680,9.305533,-3.011462,0.034290,-0.851788,-0.901491,4.000000,0.092043,-0.011090,0.000000,0.000000,-0.011090
6.333333,-0.673493,45.866951,1.423346,0.920843,-0.010252,0.389558,0.013729,1.000000,45.900874,-0.026292,0.999034,0.035208,2.017676,91.507524,91.507524,-3.367881,-0.014805,9.485602,-3.300354,-0.042195,-0.671720,-0.868306,4.000000,0.095326,-0.013481,0.000000,0.000000,-0.013481
6.380952,-0.572892,45.895465,1.509834,0.920744,-0.009740,0.389792,0.014082,1.000000,45.929874,-0.024964,0.999037,0.036091,2.068322,91.431431,91.431431,-3.544868,-0.083821,9.268578,-3.477340,-0.111211,-0.888743,-0.942416,4.000000,0.095080,-0.015885,0.000000,0.000000,-0.015885
6.428571,-0.428019,45.923601,1.640296,0.920644,-0.009023,0.390025,0.014637,1.000000,45.959309,-0.023112,0.999030,0.037491,2.148566,91.325249,91.325249,-3.252323,-0.202228,8.808429,-3.184796,-0.229618,-1.348892,-0.945767,4.000000,0.094675,-0.018307,0.000000,0.000000,-0.018307
6.476190,-0.231821,45.941967,1.826528,0.920571,-0.008083,0.390185,0.015464,1.000000,45.980541,-0.020694,0.999002,0.039594,2.269140,91.186716,91.186716,-3.452587,-0.211123,9.527061,-3.385060,-0.238513,-0.630260,-0.768600,4.000000,0.102706,-0.020348,0.000000,0.000000,-0.020348
6.523810,-0.012066,45.962310,2.119002,0.920475,-0.007316,0.390360,0.017064,1.000000,46.008709,-0.018721,0.998871,0.043665,2.502609,91.073727,91.073727,-1.260330,-0.104278,9.872757,-1.192802,-0.131668,-0.284564,-0.556574,4.000000,0.120833,-0.021525,0.000000,0.000000,-0.021525
6.571429,0.239984,46.019920,2.463556,0.920240,-0.006476,0.390841,0.018968,1.000000,46.077672,-0.016547,0.998688,0.048468,2.778084,90.949233,90.949233,-2.764371,-0.178033,9.678848,-2.696844,-0.205423,-0.478473,-0.395627,4.000000,0.146625,-0.021474,0.000000,0.000000,-0.021474
6.619048,0.482417,46.072633,2.812916,0.920012,-0.005732,0.391288,0.020940,1.000000,46.144315,-0.014626,0.998464,0.053435,3.063036,90.839222,90.839222,-3.469647,-0.491109,9.741952,-3.402119,-0.518499,-0.415369,-0.121658,4.000000,0.185462,-0.019573,0.000000,0.000000,-0.019573
6.666667,0.716521,46.120407,3.118286,0.919802,-0.004906,0.391702,0.022586,1.000000,46.205753,-0.012504,0.998264,0.057561,3.299813,90.717643,90.717643,-3.835078,-0.510301,10.431520,-3.767551,-0.537691,0.274198,0.322689,4.000000,0.245460,-0.014815,0.000000,0.000000,-0.014815
6.714286,0.941423,46.195997,3.443517,0.919486,-0.004233,0.392342,0.024415,1.000000,46.297972,-0.010769,0.998012,0.062105,3.560628,90.618196,90.618196,-3.771357,-0.350505,10.478436,-3.703829,-0.377895,0.321115,0.516941,4.000000,0.314707,-0.006760,0.000000,0.000000,-0.006760
6.761905,1.027352,46.291512,3.629814,0.919121,-0.004209,0.393120,0.025598,1.000000,46.404086,-0.010683,0.997830,0.064974,3.725371,90.613415,90.613415,-3.562489,-0.125754,9.906977,-3.494961,-0.153144,-0.250345,-0.425414,4.000000,0.339080,0.002455,0.000000,0.000000,0.002455
6.809524,1.081083,46.405865,3.779890,0.918697,-0.004327,0.394043,0.026596,1.000000,46.527371,-0.010955,0.997670,0.067338,3.861094,90.629112,90.629112,-3.450687,-0.091859,9.773571,-3.383160,-0.119249,-0.383751,-3.027573,4.000000,0.239541,0.006931,0.000000,0.000000,0.006931
6.857143,-0.059621,46.013019,3.007242,0.920138,-0.010734,0.390689,0.024356,1.000000,46.107455,-0.027412,0.997687,0.062198,3.565970,91.573828,91.573828,-0.369814,0.020991,1.935190,-0.302286,-0.006399,-8.222131,-5.967607,4.000000,0.000000,0.000000,0.000000,0.000000,0.000000
6.904762,0.621251,45.517228,3.994194,0.921642,-0.008485,0.386783,0.030039,1.000000,45.665278,-0.021866,0.996759,0.077412,4.439846,91.256686,91.256686,1.441050,-2.153931,1.594475,1.508577,-2.181321,-8.562846,-6.731350,4.000000,-0.273705,-0.015709,0.000000,0.000000,-0.015709
6.952381,0.382778,45.261190,3.850651,0.922522,-0.009846,0.384672,0.029725,1.000000,45.404824,-0.025512,0.996703,0.077020,4.417279,91.466242,91.466242,-2.168918,2.595584,6.535688,-2.101391,2.568194,-3.621633,-4.744861,4.000000,-0.452815,-0.039947,0.000000,0.000000,-0.039947
7.000000,1.144712,44.378813,4.548998,0.925314,-0.005746,0.377720,0.032976,1.000000,44.568347,-0.015152,0.996096,0.086963,4.988902,90.871476,90.871476,-3.228034,0.282039,9.484383,-3.160507,0.254649,-0.672939,-1.941105,4.000000,-0.498413,-0.066356,0.000000,0.000000,-0.066356
7.047619,0.989874,44.808413,4.443969,0.923916,-0.006797,0.381147,0.032554,1.000000,44.989049,-0.017764,0.996215,0.085086,4.880972,91.021574,91.021574,-2.982912,-0.348861,9.298140,-2.915385,-0.376251,-0.859182,0.035752,4.000000,-0.449875,-0.090454,0.000000,0.000000,-0.090454
7.095238,0.922316,44.451105,4.401684,0.925106,-0.007080,0.378249,0.032506,1.000000,44.631283,-0.018647,0.996154,0.085608,4.910962,91.072369,91.072369,-3.721618,-0.594445,11.622195,-3.654091,-0.621835,1.464874,1.072085,4.000000,-0.351988,-0.109891,0.000000,0.000000,-0.109891
7.142857,0.744320,44.101501,4.235303,0.926289,-0.007856,0.375386,0.031811,1.000000,44.272851,-0.020849,0.996212,0.084421,4.842744,91.198933,91.198933,-3.677732,-0.404847,11.436688,-3.610204,-0.432237,1.279366,1.520244,4.000000,-0.232760,-0.123650,0.000000,0.000000,-0.123650
7.190476,0.594439,43.752007,4.137661,0.927445,-0.008640,0.372525,0.031569,1.000000,43.920108,-0.023104,0.996163,0.084417,4.842496,91.328612,91.328612,-3.921434,-0.442647,11.840203,-3.853907,-0.470037,1.682882,1.560575,4.000000,-0.111611,-0.131640,0.000000,0.000000,-0.131640
7.238095,0.392326,43.442413,3.998156,0.928469,-0.009731,0.369974,0.031140,1.000000,43.605187,-0.026201,0.996134,0.083843,4.809485,91.506683,91.506683,-4.218942,-0.401560,11.604820,-4.151415,-0.428950,1.447499,1.336870,4.000000,-0.001115,-0.134369,0.000000,0.000000,-0.134369
7.285714,0.212524,43.109206,3.869548,0.929559,-0.010680,0.367236,0.030720,1.000000,43.267634,-0.028968,0.996101,0.083325,4.779712,91.665766,91.665766,-3.883966,-0.361025,10.892545,-3.816439,-0.388415,0.735224,1.054742,4.000000,0.095946,-0.132475,0.000000,0.000000,-0.132475
7.333333,0.117729,42.786049,3.853221,0.930586,-0.011307,0.364589,0.030928,1.000000,42.947307,-0.030887,0.995946,0.084487,4.846527,91.776353,91.776353,-4.060269,-0.402428,11.032502,-3.992742,-0.429818,0.875181,0.846850,4.000000,0.183108,-0.126431,0.000000,0.000000,-0.126431
7.380952,-0.032068,42.468039,3.792939,0.931595,-0.012246,0.361971,0.030948,1.000000,42.630354,-0.033691,0.995799,0.085140,4.884061,91.937735,91.937735,-4.165636,-0.538607,11.111797,-4.098108,-0.565997,0.954475,0.645016,4.000000,0.260658,-0.116694,0.000000,0.000000,-0.116694
7.428571,-0.080382,42.169550,3.846154,0.932515,-0.012726,0.359524,0.031563,1.000000,42.339387,-0.035241,0.995550,0.087401,5.014100,92.027317,92.027317,-3.710474,-0.478305,10.212558,-3.642947,-0.505695,0.055237,0.365875,4.000000,0.324916,-0.103898,0.000000,0.000000,-0.103898
7.476190,-0.065059,41.890216,3.961502,0.933358,-0.012886,0.357241,0.032483,1.000000,42.071020,-0.035898,0.995250,0.090495,5.192061,92.065737,92.065737,-3.380598,-0.414908,10.180209,-3.313070,-0.442298,0.022888,0.015765,4.000000,0.372503,-0.088835,0.000000,0.000000,-0.088835
7.523810,-0.102351,41.639615,4.052985,0.934107,-0.013403,0.355178,0.033370,1.000000,41.831403,-0.037544,0.994914,0.093475,5.363525,92.161073,92.161073,-3.151948,-0.370955,10.091118,-3.084420,-0.398345,-0.066203,-0.440982,4.000000,0.398339,-0.072542,0.000000,0.000000,-0.072542
7.571429,-0.163852,41.412577,4.131587,0.934778,-0.014082,0.353299,0.034224,1.000000,41.615342,-0.039642,0.994559,0.096342,5.528577,92.282532,92.282532,-2.589944,-0.349920,8.907000,-2.522416,-0.377310,-1.250322,-0.969231,4.000000,0.399021,-0.056216,0.000000,0.000000,-0.056216
7.619048,-0.091320,41.196152,4.340592,0.935389,-0.014068,0.351529,0.035729,1.000000,41.417844,-0.039784,0.994087,0.101038,5.798919,92.291785,92.291785,-2.407227,-0.174922,8.592133,-2.339700,-0.202312,-1.565188,-1.389783,4.000000,0.379676,-0.040812,0.000000,0.000000,-0.040812
7.666667,-0.062254,40.994784,4.515452,0.935953,-0.014303,0.349873,0.037090,1.000000,41.234561,-0.040619,0.993607,0.105334,6.046388,92.340990,92.340990,-2.636619,-0.242227,8.812743,-2.569092,-0.269617,-1.344579,-1.648360,4.000000,0.348018,-0.026915,0.000000,0.000000,-0.026915
7.714286,-0.041802,40.798377,4.686144,0.936498,-0.014592,0.348253,0.038446,1.000000,41.056945,-0.041611,0.993101,0.109635,6.294284,92.399275,92.399275,-2.394179,-0.133851,8.107762,-2.326651,-0.161241,-2.049559,-1.858727,4.000000,0.306343,-0.015002,0.000000,0.000000,-0.015002
7.761905,-0.034818,40.597589,4.840152,0.937055,-0.014933,0.346594,0.039709,1.000000,40.874483,-0.042767,0.992592,0.113719,6.529767,92.467141,92.467141,-2.414182,-0.122850,8.155703,-2.346655,-0.150240,-2.001618,-2.097391,4.000000,0.253303,-0.005616,0.000000,0.000000,-0.005616
7.809524,-0.045636,40.397538,4.998455,0.937602,-0.015430,0.344933,0.041062,1.000000,40.694774,-0.044375,0.992011,0.118091,6.781938,92.561249,92.561249,-2.341139,-0.132368,7.675132,-2.273612,-0.159759,-2.482189,-2.398842,4.000000,0.185908,0.000562,0.000000,0.000000,0.000562
7.857143,-0.158327,40.169782,5.061321,0.938247,-0.016459,0.343020,0.041943,1.000000,40.481552,-0.047575,0.991483,0.121234,6.963309,92.747161,92.747161,-2.443666,-0.145391,7.701292,-2.376139,-0.172781,-2.456029,-2.775671,4.000000,0.100568,0.002675,0.000000,0.000000,0.002675
7.904762,-0.301704,39.933036,5.090377,0.938922,-0.017636,0.341023,0.042636,1.000000,40.257413,-0.051248,0.990971,0.123895,7.116965,92.960399,92.960399,-2.112996,-0.148299,6.762113,-2.045469,-0.175689,-3.395208,-3.095481,4.000000,0.000000,0.000000,0.000000,0.000000,0.000000
7.952381,-0.418920,39.664325,5.153420,0.939677,-0.018688,0.338766,0.043529,1.000000,40.005123,-0.054633,0.990364,0.127255,7.311025,93.157467,93.157467,-2.338517,-0.202013,7.005490,-2.270989,-0.229403,-3.151831,-3.127197,4.000000,-0.099003,-0.011139,0.000000,0.000000,-0.011139
8.000000,-0.562353,39.373125,5.189495,0.940498,-0.019866,0.336316,0.044276,1.000000,39.729264,-0.058465,0.989749,0.130301,7.487004,93.380581,93.380581,-2.727149,-0.267244,7.439458,-2.659622,-0.294634,-2.717863,-2.778300,4.000000,-0.181391,-0.026201,0.000000,0.000000,-0.026201
8.047619,-0.669740,39.054779,5.246047,0.941389,-0.020799,0.333649,0.045083,1.000000,39.427762,-0.061660,0.989109,0.133649,7.680504,93.567157,93.567157,-3.074812,-0.311842,7.915181,-3.007285,-0.339232,-2.242140,-2.146603,4.000000,-0.233699,-0.043755,0.000000,0.000000,-0.043755
8.095238,-0.770853,38.713213,5.285604,0.942346,-0.021622,0.330794,0.045729,1.000000,39.101193,-0.064614,0.988510,0.136652,7.854161,93.739814,93.739814,-3.407036,-0.409193,8.786312,-3.339509,-0.436583,-1.371010,-1.411452,4.000000,-0.250999,-0.062132,0.000000,0.000000,-0.062132
8.142857,-0.821346,38.357742,5.333555,0.943341,-0.022047,0.327839,0.046296,1.000000,38.759180,-0.066442,0.987988,0.139519,8.020004,93.847324,93.847324,-3.325643,-0.293742,9.360533,-3.258116,-0.321132,-0.796789,-0.794646,4.000000,-0.238928,-0.079934,0.000000,0.000000,-0.079934
8.190476,-0.846602,37.997172,5.365909,0.944352,-0.022216,0.324852,0.046661,1.000000,38.408558,-0.067539,0.987581,0.141853,8.155077,93.912241,93.912241,-3.000372,-0.253434,9.834041,-2.932845,-0.280824,-0.323280,-0.498961,4.000000,-0.212777,-0.096491,0.000000,0.000000,-0.096491
8.238095,-0.905460,37.617689,5.354055,0.945418,-0.022530,0.321701,0.046755,1.000000,38.035400,-0.069139,0.987235,0.143482,8.249410,94.006030,94.006030,-2.824396,-0.210840,9.600472,-2.756869,-0.238230,-0.556849,-0.562565,4.000000,-0.189654,-0.111947,0.000000,0.000000,-0.111947
8.285714,-0.954628,37.220802,5.322324,0.946532,-0.022703,0.318410,0.046656,1.000000,37.641611,-0.070373,0.986982,0.144620,8.315268,94.078364,94.078364,-3.211665,-0.217620,9.305553,-3.144138,-0.245010,-0.851769,-0.796076,4.000000,-0.177651,-0.126831,0.000000,0.000000,-0.126831
8.333333,-0.970581,36.816092,5.295810,0.947661,-0.022616,0.315063,0.046505,1.000000,37.238555,-0.070834,0.986796,0.145655,8.375220,94.105778,94.105778,-3.377091,-0.303057,9.057800,-3.309564,-0.330447,-1.099521,-0.935006,4.000000,-0.172264,-0.141459,0.000000,0.000000,-0.141459
8.380952,-0.982268,36.412389,5.251122,0.948784,-0.022446,0.311725,0.046189,1.000000,36.833563,-0.071048,0.986700,0.146202,8.406886,94.118507,94.118507,-3.667369,-0.274735,9.343186,-3.599842,-0.302125,-0.814135,-0.873527,4.000000,-0.163949,-0.155690,0.000000,0.000000,-0.155690
8.428571,-1.019622,36.018417,5.172110,0.949877,-0.022402,0.308461,0.045656,1.000000,36.435009,-0.071659,0.986680,0.146040,8.397495,94.153884,94.153884,-3.538986,-0.309589,9.460581,-3.471459,-0.336979,-0.696740,-0.711474,4.000000,-0.147917,-0.169159,0.000000,0.000000,-0.169159
8.476190,-1.078680,35.633968,5.069181,0.950938,-0.022483,0.305268,0.044977,1.000000,36.043977,-0.072672,0.986704,0.145377,8.359120,94.212298,94.212298,-3.313955,-0.350676,9.596857,-3.246427,-0.378066,-0.560464,-0.603810,4.000000,-0.126758,-0.181620,0.000000,0.000000,-0.181620
8.523810,-1.147095,35.264160,4.983452,0.951941,-0.022699,0.302187,0.044460,1.000000,35.670693,-0.074111,0.986629,0.145160,8.346522,94.295734,94.295734,-3.155374,-0.450247,9.585111,-3.087846,-0.477637,-0.572210,-0.622321,4.000000,-0.106481,-0.193115,0.000000,0.000000,-0.193115
8.571429,-1.233732,34.923661,4.878876,0.952860,-0.023032,0.299344,0.043827,1.000000,35.325156,-0.075910,0.986596,0.144449,8.305346,94.399753,94.399753,-3.342829,-0.495155,9.409292,-3.275302,-0.522545,-0.748029,-0.719819,4.000000,-0.090847,-0.203866,0.000000,0.000000,-0.203866
8.619048,-1.304611,34.593113,4.765641,0.953751,-0.023221,0.296589,0.043075,1.000000,34.987190,-0.077249,0.986660,0.143298,8.238740,94.476733,94.476733,-3.210627,-0.459303,9.318679,-3.143100,-0.486693,-0.838642,-0.780456,4.000000,-0.078100,-0.214009,0.000000,0.000000,-0.214009
8.666667,-1.340692,34.286644,4.669653,0.954571,-0.023178,0.294043,0.042372,1.000000,34.672957,-0.077783,0.986778,0.142197,8.174980,94.507031,94.507031,-2.633334,-0.336381,9.258118,-2.565806,-0.363771,-0.899204,-0.753952,4.000000,-0.064091,-0.223486,0.000000,0.000000,-0.223486
8.714286,-1.346234,34.005715,4.621199,0.955308,-0.023014,0.291709,0.041984,1.000000,34.388424,-0.077851,0.986797,0.142025,8.165044,94.510892,94.510892,-2.601229,-0.186252,9.535619,-2.533702,-0.213642,-0.621703,-0.772070,4.000000,-0.050944,-0.232337,0.000000,0.000000,-0.232337
8.761905,-1.377901,33.773390,4.570575,0.955912,-0.023079,0.289769,0.041643,1.000000,34.153744,-0.078591,0.986769,0.141810,8.152585,94.553709,94.553709,-2.699690,-0.197230,9.117011,-2.632163,-0.224620,-1.040311,-1.074018,4.000000,-0.052177,-0.241246,0.000000,0.000000,-0.241246
8.809524,-1.429210,33.575924,4.519268,0.956419,-0.023318,0.288113,0.041344,1.000000,33.955065,-0.079858,0.986699,0.141590,8.139892,94.627093,94.627093,-3.148157,-0.229433,8.690441,-3.080629,-0.256823,-1.466880,-1.751538,4.000000,-0.085672,-0.251750,0.000000,0.000000,-0.251750
8.857143,-1.542390,33.414794,4.403152,0.956843,-0.023925,0.286751,0.040657,1.000000,33.788375,-0.082327,0.986737,0.139904,8.042288,94.769332,94.769332,-2.477601,-0.272888,7.606985,-2.410074,-0.300278,-2.550337,-2.515582,4.000000,-0.155550,-0.265582,0.000000,0.000000,-0.265582
8.904762,-1.594096,33.278980,4.373001,0.957183,-0.024242,0.285604,0.040532,1.000000,33.653975,-0.083743,0.986602,0.140014,8.048655,94.851678,94.851678,-1.818900,-0.203887,6.438254,-1.751372,-0.231277,-3.719067,-2.861724,4.000000,-0.241911,-0.283526,0.000000,0.000000,-0.283526
8.952381,-1.563789,33.173876,4.398412,0.957443,-0.024022,0.284731,0.040666,1.000000,33.550955,-0.083231,0.986519,0.140899,8.099843,94.822532,94.822532,-2.668434,-0.125078,8.250117,-2.600906,-0.152468,-1.907204,-2.656401,4.000000,-0.318495,-0.305117,0.000000,0.000000,-0.305117
9.000000,-1.700167,33.117216,4.290853,0.957593,-0.024879,0.284232,0.040105,1.000000,33.491356,-0.086348,0.986493,0.139193,8.001148,95.002357,95.002357,-2.151476,-0.279728,7.721542,-2.083949,-0.307118,-2.435779,-2.240695,4.000000,-0.375283,-0.329413,0.000000,0.000000,-0.329413
9.047619,-1.762965,33.086946,4.265290,0.957664,-0.025332,0.283963,0.040046,1.000000,33.463301,-0.087992,0.986361,0.139102,7.995860,95.097794,95.097794,-2.417263,-0.262214,8.310295,-2.349736,-0.289604,-1.847026,-1.891836,4.000000,-0.415459,-0.355621,0.000000,0.000000,-0.355621
9.095238,-1.864353,33.075276,4.225042,0.957684,-0.026076,0.283839,0.039960,1.000000,33.455205,-0.090599,0.986162,0.138837,7.980535,95.249062,95.249062,-2.723274,-0.369504,8.586740,-2.655746,-0.396894,-1.570581,-1.626813,4.000000,-0.443015,-0.383142,0.000000,0.000000,-0.383142
9.142857,-1.969901,33.077991,4.173517,0.957671,-0.026832,0.283837,0.039791,1.000000,33.460456,-0.093209,0.986005,0.138228,7.945338,95.400232,95.400232,-2.852351,-0.336095,8.680154,-2.784824,-0.363485,-1.477167,-1.382998,4.000000,-0.458960,-0.411422,0.000000,0.000000,-0.411422
9.190476,-2.066999,33.090270,4.125856,0.957634,-0.027528,0.283917,0.039634,1.000000,33.475207,-0.095588,0.985861,0.137624,7.910365,95.538007,95.538007,-3.051204,-0.382528,8.979515,-2.983676,-0.409918,-1.177806,-1.121780,4.000000,-0.462467,-0.439869,0.000000,0.000000,-0.439869
9.238095,-2.104665,33.123183,4.119034,0.957545,-0.027834,0.284181,0.039673,1.000000,33.510476,-0.096552,0.985768,0.137616,7.909936,95.594066,95.594066,-3.296386,-0.348342,9.410222,-3.228859,-0.375732,-0.747099,-0.886626,4.000000,-0.454776,-0.467949,0.000000,0.000000,-0.467949
9.285714,-2.175055,33.164797,4.092720,0.957433,-0.028368,0.284511,0.039630,1.000000,33.554921,-0.098276,0.985643,0.137292,7.891193,95.693998,95.693998,-3.290349,-0.368018,9.427244,-3.222821,-0.395408,-0.730078,-0.740116,4.000000,-0.440108,-0.495331,0.000000,0.000000,-0.495331
9.333333,-2.215162,33.220853,4.069814,0.957291,-0.028660,0.284971,0.039542,1.000000,33.611244,-0.099127,0.985631,0.136766,7.860723,95.743023,95.743023,-3.308988,-0.215578,9.458319,-3.241461,-0.242968,-0.699003,-0.637354,4.000000,-0.420546,-0.521782,0.000000,0.000000,-0.521782
9.380952,-2.228581,33.273111,4.071395,0.957157,-0.028789,0.285403,0.039593,1.000000,33.664538,-0.099420,0.985607,0.136729,7.858636,95.760034,95.760034,-3.501927,-0.281315,9.469655,-3.434399,-0.308705,-0.687666,-0.504752,4.000000,-0.394671,-0.547001,0.000000,0.000000,-0.547001
9.428571,-2.220189,33.316498,4.092034,0.957043,-0.028781,0.285763,0.039748,1.000000,33.709490,-0.099264,0.985573,0.137086,7.879244,95.751266,95.751266,-3.844430,-0.295012,10.101060,-3.776902,-0.322402,-0.056261,-0.394771,4.000000,-0.363558,-0.570738,0.000000,0.000000,-0.570738
9.476190,-2.235574,33.358918,4.092867,0.956932,-0.028922,0.286112,0.039796,1.000000,33.753136,-0.099626,0.985537,0.137080,7.878941,95.772284,95.772284,-3.538955,-0.299219,9.662901,-3.471428,-0.326610,-0.494420,-0.380223,4.000000,-0.331752,-0.592960,0.000000,0.000000,-0.592960
9.523810,-2.200164,33.398254,4.149747,0.956823,-0.028779,0.286439,0.040185,1.000000,33.796395,-0.099007,0.985436,0.138250,7.946566,95.737296,95.737296,-3.517211,-0.256203,9.639356,-3.449684,-0.283593,-0.517965,-0.392322,4.000000,-0.300523,-0.613695,0.000000,0.000000,-0.613695
9.571429,-2.227744,33.436069,4.163617,0.956716,-0.029053,0.286741,0.040373,1.000000,33.838494,-0.099831,0.985286,0.138727,7.974168,95.785596,95.785596,-3.600789,-0.353893,9.851134,-3.533261,-0.381283,-0.306187,-0.355271,4.000000,-0.267529,-0.632859,0.000000,0.000000,-0.632859
9.619048,-2.250640,33.464563,4.203048,0.956624,-0.029350,0.286961,0.040761,1.000000,33.874488,-0.100748,0.985024,0.139917,8.043057,95.839914,95.839914,-3.757704,-0.552173,9.978076,-3.690176,-0.579563,-0.179245,-0.310854,4.000000,-0.232420,-0.650352,0.000000,0.000000,-0.650352
9.666667,-2.277250,33.483575,4.251418,0.956552,-0.029699,0.287098,0.041233,1.000000,33.902804,-0.101861,0.984695,0.141422,8.130141,95.905916,95.905916,-3.706530,-0.584414,9.763011,-3.639002,-0.611804,-0.394310,-0.281187,4.000000,-0.195898,-0.666105,0.000000,0.000000,-0.666105
9.714286,-2.254507,33.504367,4.344422,0.956472,-0.029747,0.287256,0.041954,1.000000,33.934319,-0.101936,0.984348,0.143765,8.265741,95.912309,95.912309,-3.793752,-0.554808,9.985712,-3.726225,-0.582198,-0.171609,-0.195168,4.000000,-0.155280,-0.679924,0.000000,0.000000,-0.679924
9.761905,-2.192654,33.526001,4.472118,0.956386,-0.029557,0.287426,0.042866,1.000000,33.967984,-0.101187,0.983985,0.146749,8.438561,95.871320,95.871320,-3.559825,-0.524930,9.749970,-3.492298,-0.552320,-0.407352,-0.058923,4.000000,-0.108175,-0.691500,0.000000,0.000000,-0.691500
9.809524,-2.083865,33.559059,4.647440,0.956264,-0.029099,0.287699,0.044058,1.000000,34.015819,-0.099482,0.983573,0.150624,8.663069,95.775428,95.775428,-3.679097,-0.323972,10.049189,-3.611569,-0.351362,-0.108132,-0.198902,4.000000,-0.067735,-0.701150,0.000000,0.000000,-0.701150
9.857143,-1.979804,33.610083,4.805672,0.956100,-0.028643,0.288125,0.045119,1.000000,34.080076,-0.097745,0.983229,0.153969,8.857014,95.677263,95.677263,-3.583197,-0.241000,9.927327,-3.515670,-0.268390,-0.229995,-1.125423,4.000000,-0.071415,-0.710975,0.000000,0.000000,-0.710975
9.904762,-1.905071,33.669404,4.940122,0.955915,-0.028377,0.288617,0.046055,1.000000,34.152302,-0.096637,0.982885,0.156840,9.023498,95.615246,95.615246,-3.647861,-0.182248,10.056750,-3.580333,-0.209638,-0.100571,-2.281939,4.000000,-0.130167,-0.723599,0.000000,0.000000,-0.723599
9.952381,-0.518523,33.574142,5.668248,0.956139,-0.018607,0.288245,0.048642,1.000000,34.064797,-0.063524,0.984067,0.166064,9.559073,93.693482,93.693482,3.270958,6.385239,-0.301405,3.338485,6.357849,-10.458726,-1.909742,4.000000,-0.171196,-0.738175,0.000000,0.000000,-0.738175
10.000000,-0.540310,32.879026,5.883164,0.957776,-0.019039,0.282395,0.050552,1.000000,33.418476,-0.066220,0.982192,0.175824,10.126588,93.857088,93.857088,-6.632403,-3.015900,19.945322,-6.564875,-3.043290,9.788001,0.080192,4.000000,-0.117466,-0.750194,0.000000,0.000000,-0.750194
10.047619,0.208209,32.181913,6.552604,0.959280,-0.014097,0.276809,0.054409,1.000000,32.813914,-0.049909,0.980002,0.192628,11.106173,92.915414,92.915414,-1.047663,0.505279,5.860437,-0.980135,0.477889,-4.296884,1.837409,4.000000,0.019942,-0.755669,0.000000,0.000000,-0.755669
10.095238,0.734224,32.134499,7.037840,0.959215,-0.010842,0.276616,0.057209,1.000000,32.840187,-0.038353,0.978555,0.202384,11.676383,92.244489,92.244489,-6.797042,-0.726557,15.695266,-6.729514,-0.753947,5.537945,2.528070,4.000000,0.190237,-0.753035,0.000000,0.000000,-0.753035
10.142857,0.835990,31.892407,7.129009,0.959759,-0.010079,0.274632,0.057778,1.000000,32.618884,-0.035892,0.977948,0.205743,11.873017,92.101893,92.101893,-5.651941,0.414172,11.866173,-5.584413,0.386782,1.708851,2.367808,4.000000,0.352902,-0.742654,0.000000,0.000000,-0.742654
10.190476,0.684528,31.811706,7.025913,0.959989,-0.011058,0.273890,0.057293,1.000000,32.524742,-0.039489,0.978050,0.204592,11.805614,92.312056,92.312056,-4.758048,-0.745566,11.780876,-4.690520,-0.772956,1.623555,1.686920,4.000000,0.483143,-0.726072,0.000000,0.000000,-0.726072
10.238095,0.629168,31.763735,6.975192,0.960124,-0.011376,0.273465,0.057010,1.000000,32.469796,-0.040689,0.978143,0.203915,11.765996,92.382039,92.382039,-4.214388,-0.354179,10.672813,-4.146860,-0.381569,0.515491,1.064065,4.000000,0.583724,-0.704701,0.000000,0.000000,-0.704701
