time_s,roll_deg,pitch_deg,yaw_deg,q0,q1,q2,q3,quat_norm,quat_rotation_deg,quat_axis_x,quat_axis_y,quat_axis_z,quat_axis_latitude_deg,quat_axis_longitude_deg,quat_axis_longitude_unwrapped_deg,acc_earth_x,acc_earth_y,acc_earth_z,acc_linear_x,acc_linear_y,acc_linear_z,a_vert_linear_ms2,butterworth_cutoff_hz,velocity_ms,displacement_m,translation_world_x_m,translation_world_y_m,translation_world_z_m
0.000000,-2.125363,54.199786,-0.196014,0.890074,-0.015731,0.455492,0.006926,1.000000,54.234983,-0.034512,0.999289,0.015195,0.870640,91.977993,91.977993,0.390055,0.108510,12.206974,0.399210,0.085237,2.051573,2.051573,4.000000,0.000000,0.000000,0.000000,0.000000,0.000000
0.047619,-2.211535,54.185109,-0.287320,0.890125,-0.016039,0.455386,0.006557,1.000000,54.221972,-0.035195,0.999277,0.014389,0.824431,92.017135,92.017135,0.154752,-0.014047,11.362390,0.163907,-0.037319,1.206989,1.334173,4.000000,0.000000,0.000000,0.000000,0.000000,0.000000
0.095238,-2.307188,54.182329,-0.380862,0.890128,-0.016410,0.455372,0.006210,1.000000,54.221289,-0.036010,0.999258,0.013627,0.780815,92.063888,92.063888,0.096967,-0.119119,11.079655,0.106122,-0.142391,0.924254,0.670365,4.000000,0.000000,0.000000,0.000000,0.000000,0.000000
0.142857,-2.358351,54.171779,-0.432135,0.890165,-0.016605,0.455295,0.006013,1.000000,54.211916,-0.036444,0.999249,0.013198,0.756189,92.088725,92.088725,0.151659,-0.105344,10.128471,0.160814,-0.128616,-0.026931,0.156200,4.000000,0.000000,0.000000,0.000000,0.000000,0.000000
0.190476,-2.313382,54.159523,-0.399713,0.890219,-0.016386,0.455198,0.006084,1.000000,54.198476,-0.035971,0.999264,0.013357,0.765306,92.061619,92.061619,0.172304,-0.057278,9.842160,0.181460,-0.080551,-0.313241,-0.097858,4.000000,0.000000,0.000000,0.000000,0.000000,0.000000
0.238095,-2.195939,54.152949,-0.303173,0.890256,-0.015858,0.455139,0.006367,1.000000,54.189070,-0.034817,0.999296,0.013979,0.800959,91.995465,91.995465,0.074011,0.013240,10.122614,0.083166,-0.010033,-0.032787,-0.180951,4.000000,0.000000,0.000000,0.000000,0.000000,0.000000
0.285714,-2.103878,54.176229,-0.217537,0.890172,-0.015481,0.455314,0.006670,1.000000,54.210388,-0.033977,0.999315,0.014639,0.838794,91.947300,91.947300,-0.074689,0.048269,10.096887,-0.065534,0.024996,-0.058515,-0.369597,4.000000,0.000000,0.000000,0.000000,0.000000,0.000000
0.333333,-2.057481,54.205836,-0.163229,0.890057,-0.015334,0.455539,0.006912,1.000000,54.239213,-0.033637,0.999319,0.015162,0.868780,91.927860,91.927860,-0.211781,0.089233,9.183937,-0.202626,0.065960,-0.971464,-0.752416,4.000000,0.000000,0.000000,0.000000,0.000000,0.000000
0.380952,-1.950111,54.250308,-0.049087,0.889887,-0.014950,0.455876,0.007378,1.000000,54.281875,-0.032772,0.999332,0.016172,0.926647,91.878305,91.878305,-0.384899,0.165241,8.824758,-0.375744,0.141968,-1.330643,-1.159508,4.000000,0.000000,0.000000,0.000000,0.000000,0.000000
0.428571,-1.867706,54.292864,0.052804,0.889722,-0.014713,0.456199,0.007846,1.000000,54.323424,-0.032230,0.999333,0.017188,0.984832,91.847218,91.847218,-0.459930,0.104021,8.706166,-0.450775,0.080748,-1.449235,-1.533732,4.000000,0.000000,0.000000,0.000000,0.000000,0.000000
0.476190,-1.860688,54.335723,0.093522,0.889549,-0.014818,0.456527,0.008140,1.000000,54.366742,-0.032436,0.999315,0.017817,1.020919,91.859069,91.859069,-0.509351,0.085269,8.364534,-0.500195,0.061996,-1.790867,-2.035933,4.000000,0.000000,0.000000,0.000000,0.000000,0.000000
0.523810,-1.883030,54.359895,0.114031,0.889448,-0.015072,0.456710,0.008391,1.000000,54.392000,-0.032977,0.999287,0.018359,1.051978,91.890123,91.890123,-0.462425,0.090734,7.478499,-0.453270,0.067462,-2.676903,-2.696588,4.000000,0.000000,0.000000,0.000000,0.000000,0.000000
0.571429,-1.847400,54.395563,0.196313,0.889305,-0.015121,0.456979,0.008892,1.000000,54.428024,-0.033066,0.999264,0.019443,1.114100,91.895219,91.895219,-0.514614,0.062431,6.750368,-0.505459,0.039158,-3.405033,-3.216201,4.000000,0.000000,0.000000,0.000000,0.000000,0.000000
0.619048,-1.794288,54.451015,0.302039,0.889082,-0.015128,0.457399,0.009507,1.000000,54.483811,-0.033050,0.999238,0.020768,1.190022,91.894367,91.894367,-0.704904,-0.035633,6.778735,-0.695749,-0.058905,-3.376666,-3.233771,4.000000,-0.095315,-0.035713,0.000000,0.000000,-0.035713
0.666667,-1.684299,54.561583,0.463237,0.888640,-0.014916,0.458246,0.010329,1.000000,54.594200,-0.032524,0.999217,0.022523,1.290582,91.864272,91.864272,-1.184900,-0.028061,7.488744,-1.175745,-0.051334,-2.666658,-2.683092,4.000000,-0.164407,-0.074716,0.000000,0.000000,-0.074716
0.714286,-1.546131,54.707974,0.648158,0.888055,-0.014582,0.459370,0.011223,1.000000,54.740415,-0.031718,0.999199,0.024411,1.398785,91.818162,91.818162,-1.700357,-0.051433,8.519349,-1.691201,-0.074705,-1.636053,-1.793861,4.000000,-0.191154,-0.114992,0.000000,0.000000,-0.114992
0.761905,-1.405750,54.829237,0.788451,0.887571,-0.014057,0.460306,0.011755,1.000000,54.860754,-0.030514,0.999209,0.025518,1.462224,91.749178,91.749178,-1.760169,0.000989,9.140585,-1.751014,-0.022284,-1.014817,-0.840126,4.000000,-0.172486,-0.154380,0.000000,0.000000,-0.154380
0.809524,-1.241769,54.512717,0.823948,0.888855,-0.012926,0.457865,0.011354,1.000000,54.540448,-0.028210,0.999295,0.024780,1.419960,91.617037,91.617037,1.005496,0.091442,10.163356,1.014651,0.068170,0.007955,-0.047107,4.000000,-0.116055,-0.191080,0.000000,0.000000,-0.191080
0.857143,-1.141620,54.162613,0.973818,0.890247,-0.012738,0.455140,0.012101,1.000000,54.191521,-0.027967,0.999256,0.026568,1.522419,91.603163,91.603163,1.704375,0.318387,10.661275,1.713530,0.295114,0.505874,0.353876,4.000000,-0.040529,-0.224184,0.000000,0.000000,-0.224184
0.904762,-1.116365,54.238972,1.057655,0.889937,-0.012878,0.455727,0.012655,1.000000,54.269415,-0.028235,0.999216,0.027748,1.590019,91.618601,91.618601,-1.581027,0.174300,10.578402,-1.571872,0.151027,0.423001,0.253909,4.000000,0.030236,-0.253918,0.000000,0.000000,-0.253918
0.952381,-1.292293,54.399324,0.893344,0.889295,-0.013593,0.456972,0.012088,1.000000,54.430344,-0.029722,0.999209,0.026431,1.514570,91.703807,91.703807,-2.275710,-0.066673,9.771616,-2.266555,-0.089945,-0.383786,-0.152792,4.000000,0.081635,-0.281205,0.000000,0.000000,-0.281205
1.000000,-1.434460,54.499467,0.740982,0.888894,-0.014089,0.457752,0.011480,1.000000,54.530818,-0.030754,0.999213,0.025058,1.435883,91.762894,91.762894,-1.901345,-0.168843,9.619833,-1.892190,-0.192116,-0.535568,-0.513863,4.000000,0.115840,-0.306863,0.000000,0.000000,-0.306863
1.047619,-1.711770,54.466285,0.462574,0.889018,-0.015129,0.457504,0.010424,1.000000,54.499841,-0.033041,0.999195,0.022767,1.304562,91.893949,91.893949,-1.056318,-0.241955,9.515044,-1.047163,-0.265228,-0.640358,-0.620477,4.000000,0.144968,-0.331134,0.000000,0.000000,-0.331134
1.095238,-1.966611,54.431781,0.272000,0.889137,-0.016347,0.457240,0.009959,1.000000,54.469877,-0.035719,0.999125,0.021762,1.246955,92.047480,92.047480,-0.966196,-0.255111,9.450800,-0.957041,-0.278384,-0.704602,-0.513526,4.000000,0.179188,-0.353775,0.000000,0.000000,-0.353775
1.142857,-2.117384,54.487116,0.210575,0.888900,-0.017268,0.457665,0.010092,1.000000,54.529359,-0.037695,0.999046,0.022029,1.262279,92.160785,92.160785,-1.838230,-0.178417,10.124898,-1.829075,-0.201690,-0.030504,-0.411227,4.000000,0.218281,-0.374555,0.000000,0.000000,-0.374555
1.190476,-2.326752,54.584753,0.075232,0.888489,-0.018344,0.458425,0.009893,1.000000,54.632090,-0.039974,0.998968,0.021558,1.235291,92.291498,92.291498,-2.082934,-0.083452,9.508788,-2.073779,-0.106725,-0.646613,-0.503297,4.000000,0.252988,-0.393682,0.000000,0.000000,-0.393682
1.238095,-2.397729,54.733744,0.082609,0.887880,-0.018912,0.459572,0.010258,1.000000,54.783970,-0.041107,0.998906,0.022296,1.277581,92.356503,92.356503,-2.283064,0.002722,9.163000,-2.273909,-0.020550,-0.992402,-0.817063,4.000000,0.272755,-0.411867,0.000000,0.000000,-0.411867
1.285714,-2.391930,54.916551,0.140178,0.887141,-0.019085,0.460979,0.010709,1.000000,54.967659,-0.041354,0.998875,0.023206,1.329706,92.370704,92.370704,-2.384487,0.080677,9.042632,-2.375332,0.057405,-1.112769,-1.373164,4.000000,0.266041,-0.430373,0.000000,0.000000,-0.430373
1.333333,-2.458213,55.062177,0.105466,0.886547,-0.019447,0.462106,0.010731,1.000000,55.115090,-0.042034,0.998847,0.023195,1.329095,92.409731,92.409731,-1.858575,0.117931,8.394807,-1.849419,0.094659,-1.760595,-2.151609,4.000000,0.222258,-0.450963,0.000000,0.000000,-0.450963
1.380952,-2.413477,55.140686,0.185453,0.886230,-0.019417,0.462704,0.011182,1.000000,55.193531,-0.041916,0.998830,0.024138,1.383115,92.403006,92.403006,-1.086794,0.111439,6.739204,-1.077639,0.088167,-3.416197,-2.777410,4.000000,0.148674,-0.475057,0.000000,0.000000,-0.475057
1.428571,-2.255569,55.216644,0.372484,0.885930,-0.018947,0.463276,0.012001,1.000000,55.267557,-0.040850,0.998830,0.025874,1.482664,92.341993,92.341993,-1.123469,0.169122,7.282809,-1.114314,0.145850,-2.872592,-2.758281,4.000000,0.076002,-0.502612,0.000000,0.000000,-0.502612
1.476190,-2.120044,55.315516,0.533814,0.885535,-0.018548,0.464028,0.012713,1.000000,55.365163,-0.039924,0.998828,0.027364,1.568056,92.288964,92.288964,-1.246301,0.121580,8.121615,-1.237146,0.098307,-2.033786,-2.116739,4.000000,0.033879,-0.532173,0.000000,0.000000,-0.532173
1.523810,-1.956909,55.463490,0.730540,0.884938,-0.018081,0.465159,0.013588,1.000000,55.512157,-0.038824,0.998820,0.029177,1.671969,92.225971,92.225971,-1.547622,0.219114,8.999786,-1.538467,0.195842,-1.155615,-1.372542,4.000000,0.027195,-0.562052,0.000000,0.000000,-0.562052
1.571429,-1.910381,55.655528,0.806466,0.884155,-0.018027,0.466635,0.014005,1.000000,55.704494,-0.038586,0.998806,0.029976,1.717779,92.212354,92.212354,-1.911015,0.136932,9.412684,-1.901859,0.113660,-0.742717,-0.943792,4.000000,0.040926,-0.591277,0.000000,0.000000,-0.591277
1.619048,-1.894213,55.845535,0.854564,0.883377,-0.018096,0.468095,0.014328,1.000000,55.895191,-0.038613,0.998786,0.030573,1.751980,92.213920,92.213920,-1.794288,0.043549,9.073054,-1.785132,0.020277,-1.082347,-0.806235,4.000000,0.061209,-0.619536,0.000000,0.000000,-0.619536
1.666667,-1.901218,56.028772,0.870572,0.882624,-0.018214,0.469504,0.014498,1.000000,56.079053,-0.038746,0.998773,0.030842,1.767399,92.221624,92.221624,-1.881102,-0.151015,9.424565,-1.871947,-0.174287,-0.730837,-0.712198,4.000000,0.085969,-0.646617,0.000000,0.000000,-0.646617
1.714286,-1.925225,56.223434,0.885719,0.881819,-0.018459,0.470997,0.014732,1.000000,56.274972,-0.039142,0.998745,0.031240,1.790192,92.244361,92.244361,-1.907696,-0.228570,9.013211,-1.898540,-0.251842,-1.142191,-0.669545,4.000000,0.112760,-0.672421,0.000000,0.000000,-0.672421
1.761905,-2.025249,56.430608,0.835429,0.880955,-0.019019,0.472586,0.014778,1.000000,56.484379,-0.040192,0.998704,0.031231,1.789677,92.304555,92.304555,-2.704462,-1.360640,11.343430,-2.695307,-1.383913,1.188029,-0.869439,4.000000,0.130033,-0.697403,0.000000,0.000000,-0.697403
1.809524,2.472105,56.513001,4.972218,0.880246,-0.001548,0.473688,0.027997,1.000000,56.655853,-0.003262,0.998253,0.059000,3.382420,90.187207,90.187207,0.239693,9.706542,7.148590,0.248848,9.683270,-3.006811,-0.874131,4.000000,0.147082,-0.721573,0.000000,0.000000,-0.721573
1.857143,5.797304,56.491998,8.151245,0.879273,0.010842,0.474624,0.038658,1.000000,56.890485,0.022763,0.996441,0.081160,4.655239,88.691363,88.691363,-2.077480,1.277220,9.852991,-2.068325,1.253947,-0.302411,0.082539,4.000000,0.209687,-0.742762,0.000000,0.000000,-0.742762
1.904762,8.885099,56.434459,11.135019,0.877923,0.022198,0.475793,0.048781,1.000000,57.214415,0.046362,0.993716,0.101881,5.847495,87.328793,87.328793,-3.900949,0.111025,13.450677,-3.891794,0.087753,3.295276,1.691745,4.000000,0.348920,-0.757321,0.000000,0.000000,-0.757321
1.952381,11.351938,56.330796,13.535755,0.876655,0.031230,0.476706,0.057025,1.000000,57.517118,0.064912,0.990827,0.118526,6.807016,86.251757,86.251757,-2.562637,-0.307684,12.024562,-2.553482,-0.330956,1.869161,2.908299,4.000000,0.546085,-0.762491,0.000000,0.000000,-0.762491
2.000000,13.679118,56.319694,15.853031,0.874747,0.039372,0.478577,0.065049,1.000000,57.969831,0.081251,0.987612,0.134239,7.714615,85.296869,85.296869,-4.045938,-0.479240,14.129860,-4.036782,-0.502513,3.974459,3.234194,4.000000,0.758769,-0.757533,0.000000,0.000000,-0.757533
2.047619,14.933545,56.309054,17.055854,0.873629,0.043930,0.479668,0.068997,1.000000,58.233651,0.090281,0.985770,0.141796,8.151811,84.767186,84.767186,-3.283090,-0.803168,13.007026,-3.273934,-0.826440,2.851625,2.781863,4.000000,0.949913,-0.743473,0.000000,0.000000,-0.743473
2.095238,15.857491,56.326754,17.996781,0.872614,0.046997,0.480743,0.072265,1.000000,58.472276,0.096224,0.984301,0.147961,8.508762,84.416557,84.416557,-2.636503,-0.784751,11.464544,-2.627347,-0.808024,1.309143,1.985875,4.000000,1.103153,-0.722116,0.000000,0.000000,-0.722116
2.142857,16.167862,56.426674,18.368174,0.871864,0.047623,0.481836,0.073619,1.000000,58.648092,0.097239,0.983844,0.150319,8.645439,84.355455,84.355455,-2.811061,-0.921546,11.777007,-2.801906,-0.944818,1.621605,1.276246,4.000000,1.222601,-0.695071,0.000000,0.000000,-0.695071
2.190476,16.138073,56.584173,18.422296,0.871233,0.046886,0.483008,0.073885,1.000000,58.795619,0.095517,0.983982,0.150518,8.656952,84.455569,84.455569,-2.627483,-0.763409,10.912633,-2.618328,-0.786682,0.757232,0.730224,4.000000,1.316048,-0.663576,0.000000,0.000000,-0.663576
2.238095,15.741676,56.799791,18.157463,0.870724,0.044608,0.484247,0.073178,1.000000,58.914294,0.090709,0.984698,0.148804,8.557613,84.736834,84.736834,-2.431542,-0.882458,10.219448,-2.422387,-0.905730,0.064047,0.279716,4.000000,1.388042,-0.628653,0.000000,0.000000,-0.628653
2.285714,15.138017,57.073479,17.750591,0.870138,0.041269,0.485743,0.072187,1.000000,59.050716,0.083743,0.985662,0.146481,8.423075,85.143753,85.143753,-2.712620,-0.685103,10.381631,-2.703465,-0.708376,0.226229,-0.076978,4.000000,1.443051,-0.591110,0.000000,0.000000,-0.591110
2.333333,14.390784,57.375146,17.211326,0.869540,0.037378,0.487332,0.070783,1.000000,59.189563,0.075686,0.986777,0.143325,8.240313,85.614004,85.614004,-2.621896,-0.474697,9.488763,-2.612741,-0.497969,-0.666639,-0.333183,4.000000,1.485859,-0.551529,0.000000,0.000000,-0.551529
2.380952,13.423044,57.680876,16.498276,0.869051,0.032580,0.488798,0.069029,1.000000,59.302879,0.065855,0.988026,0.139530,8.020656,86.186687,86.186687,-2.715212,-0.322387,9.729245,-2.706056,-0.345660,-0.426157,-0.534495,4.000000,1.519082,-0.510366,0.000000,0.000000,-0.510366
2.428571,12.276246,57.973927,15.619487,0.868689,0.027190,0.490073,0.066844,1.000000,59.386588,0.054890,0.989332,0.134941,7.755181,86.824370,86.824370,-2.590684,-0.284335,9.661662,-2.581529,-0.307608,-0.493739,-0.786469,4.000000,1.540305,-0.468192,0.000000,0.000000,-0.468192
2.476190,11.019351,58.179320,14.664517,0.868667,0.021456,0.490682,0.064711,1.000000,59.391701,0.043310,0.990485,0.130626,7.505742,87.496259,87.496259,-1.707197,0.068857,8.580042,-1.698042,0.045585,-1.575360,-1.121874,4.000000,1.545557,-0.425768,0.000000,0.000000,-0.425768
2.523810,9.830455,58.392162,13.742091,0.868499,0.016116,0.491464,0.062557,1.000000,59.430677,0.032512,0.991472,0.126201,7.250117,88.121871,88.121871,-2.036802,0.281674,9.017714,-2.027647,0.258401,-1.137688,-1.488529,4.000000,1.533349,-0.383925,0.000000,0.000000,-0.383925
2.571429,8.435632,58.566764,12.622007,0.868532,0.010139,0.491900,0.059862,1.000000,59.423002,0.020456,0.992469,0.120778,6.937019,88.819209,88.819209,-1.742805,0.534845,8.229765,-1.733650,0.511573,-1.925636,-1.857292,4.000000,1.503581,-0.343500,0.000000,0.000000,-0.343500
2.619048,7.266334,58.733313,11.693156,0.868389,0.005084,0.492491,0.057683,1.000000,59.456041,0.010253,0.993158,0.116324,6.679977,89.408528,89.408528,-2.119589,0.545286,8.103058,-2.110433,0.522013,-2.052343,-2.117799,4.000000,1.461408,-0.305083,0.000000,0.000000,-0.305083
2.666667,5.960389,58.874229,10.559990,0.868379,-0.000079,0.492887,0.054591,1.000000,59.458411,-0.000159,0.993922,0.110084,6.320134,90.009155,90.009155,-1.990574,0.369016,7.740540,-1.981418,0.345744,-2.414861,-2.062590,4.000000,1.421864,-0.268550,0.000000,0.000000,-0.268550
2.714286,4.949800,58.811426,9.674674,0.869040,-0.003881,0.491958,0.052268,1.000000,59.305441,-0.007844,0.994373,0.105647,6.064453,90.451971,90.451971,-1.211530,0.574464,8.578208,-1.202375,0.551192,-1.577193,-1.667551,4.000000,1.401131,-0.233003,0.000000,0.000000,-0.233003
2.761905,3.975436,58.902845,8.807173,0.868989,-0.007616,0.492258,0.049815,1.000000,59.317186,-0.015391,0.994801,0.100671,5.777807,90.886358,90.886358,-2.352792,-0.028241,9.123386,-2.343637,-0.051513,-1.032015,-1.207454,4.000000,1.402307,-0.197400,0.000000,0.000000,-0.197400
2.809524,3.160881,59.054314,8.016771,0.868614,-0.010498,0.493121,0.047241,1.000000,59.404121,-0.021187,0.995219,0.095342,5.471027,91.219550,91.219550,-3.344773,-0.069781,9.538003,-3.335618,-0.093053,-0.617398,-0.914436,4.000000,1.417437,-0.161077,0.000000,0.000000,-0.161077
2.857143,2.225798,59.207933,7.055207,0.868240,-0.013535,0.494012,0.043911,1.000000,59.490488,-0.027280,0.995702,0.088504,5.077544,91.569379,91.569379,-3.407542,-0.183095,9.105662,-3.398386,-0.206367,-1.049740,-0.626034,4.000000,1.446301,-0.123380,0.000000,0.000000,-0.123380
2.904762,1.491803,59.338405,6.309192,0.867862,-0.015943,0.494822,0.041378,1.000000,59.577701,-0.032091,0.996009,0.083287,4.777546,91.845411,91.845411,-3.784322,-0.274113,9.635578,-3.775167,-0.297385,-0.519823,-0.083931,4.000000,1.500978,-0.083079,0.000000,0.000000,-0.083079
2.952381,0.496267,59.418445,5.274243,0.867723,-0.019045,0.495242,0.037818,1.000000,59.609893,-0.038316,0.996365,0.076085,4.363551,92.202265,92.202265,-3.397754,-0.270337,9.335260,-3.388599,-0.293610,-0.820141,0.132865,4.000000,1.565979,-0.039682,0.000000,0.000000,-0.039682
3.000000,-0.189603,59.427015,4.560890,0.867793,-0.021159,0.495213,0.035378,1.000000,59.593641,-0.042579,0.996553,0.071194,4.082588,92.446559,92.446559,-3.028600,-0.204516,9.612237,-3.019445,-0.227789,-0.543164,-1.942988,4.000000,1.532131,0.002102,0.000000,0.000000,0.002102
3.047619,-0.881345,59.386054,3.809127,0.868060,-0.023140,0.494843,0.032678,1.000000,59.532136,-0.046610,0.996742,0.065821,3.774011,92.677332,92.677332,-2.699025,-0.229008,9.568248,-2.689870,-0.252280,-0.587153,-7.318352,4.000000,1.242312,0.030086,0.000000,0.000000,0.030086
3.095238,-2.803849,58.939633,1.969019,0.870019,-0.029748,0.491379,0.026989,1.000000,59.078284,-0.060338,0.996676,0.054742,3.138081,93.464397,93.464397,2.452641,-9.457308,-15.931621,2.461796,-9.480581,-26.087022,-13.093096,4.000000,0.677506,0.031174,0.000000,0.000000,0.031174
3.142857,-0.405709,58.839067,4.297857,0.870363,-0.021500,0.490737,0.034399,1.000000,58.998263,-0.043663,0.996601,0.069859,4.005895,92.508647,92.508647,-1.757504,-1.115421,5.836921,-1.748349,-1.138693,-4.318480,-15.459783,4.000000,0.000000,0.000000,0.000000,0.000000,0.000000
3.190476,-3.711244,57.280353,0.836266,0.877050,-0.031914,0.478836,0.021922,1.000000,57.422887,-0.066433,0.996747,0.045632,2.615427,93.813123,93.813123,8.281928,-2.610231,-10.247138,8.291083,-2.633503,-20.402539,-13.252246,4.000000,-0.574400,-0.033485,0.000000,0.000000,-0.033485
3.238095,-2.216705,57.781539,1.962820,0.875090,-0.025207,0.482690,0.024338,1.000000,57.888724,-0.052085,0.997376,0.050288,2.882532,92.989380,92.989380,-1.057589,1.183416,1.690145,-1.048434,1.160143,-8.465256,-7.109338,4.000000,-0.856280,-0.080393,0.000000,0.000000,-0.080393
3.285714,-3.415630,57.620765,0.801862,0.875708,-0.029484,0.481504,0.020491,1.000000,57.742193,-0.061063,0.997231,0.042437,2.432215,93.503984,93.503984,-2.212307,-6.749128,14.846313,-2.203152,-6.772401,4.690912,-0.227319,4.000000,-0.810445,-0.125119,0.000000,0.000000,-0.125119
3.333333,-2.180485,57.717332,1.900617,0.875382,-0.024665,0.482221,0.023705,1.000000,57.819650,-0.051021,0.997493,0.049035,2.810632,92.928104,92.928104,-6.140848,-0.190278,13.767820,-6.131693,-0.213550,3.612418,3.041277,4.000000,-0.608963,-0.160250,0.000000,0.000000,-0.160250
3.380952,-1.679695,57.533845,2.351491,0.876161,-0.022720,0.480831,0.025037,1.000000,57.634593,-0.047134,0.997537,0.051943,2.977436,92.705260,92.705260,-4.229411,-1.026553,11.179094,-4.220256,-1.049825,1.023693,2.235073,4.000000,-0.445872,-0.187615,0.000000,0.000000,-0.187615
3.428571,-1.267875,57.312702,2.708506,0.877088,-0.021039,0.479162,0.026042,1.000000,57.413985,-0.043802,0.997568,0.054217,3.107940,92.514150,92.514150,-4.123697,0.026674,9.351658,-4.114542,0.003402,-0.803744,0.304492,4.000000,-0.374712,-0.211591,0.000000,0.000000,-0.211591
3.476190,-1.056983,56.915347,2.834697,0.878754,-0.019893,0.476143,0.026139,1.000000,57.015088,-0.041680,0.997629,0.054767,3.139514,92.392360,92.392360,-3.754142,0.158585,9.703779,-3.744987,0.135313,-0.451622,-0.715099,4.000000,-0.352105,-0.234491,0.000000,0.000000,-0.234491
3.523810,-0.876298,56.405615,2.921321,0.880876,-0.018783,0.472255,0.026076,1.000000,56.503555,-0.039682,0.997693,0.055090,3.157997,92.277670,92.277670,-3.502416,0.201680,9.566397,-3.493261,0.178408,-0.589004,-0.861961,4.000000,-0.336491,-0.256648,0.000000,0.000000,-0.256648
3.571429,-0.713735,55.894849,3.007877,0.882980,-0.017800,0.468346,0.026102,1.000000,55.992096,-0.037920,0.997732,0.055607,3.187680,92.176574,92.176574,-3.408995,0.146637,9.452783,-3.399840,0.123365,-0.702618,-0.796216,4.000000,-0.317747,-0.277911,0.000000,0.000000,-0.277911
3.619048,-0.525232,55.408287,3.115035,0.884966,-0.016693,0.464619,0.026194,1.000000,55.505401,-0.035848,0.997773,0.056253,3.224736,92.057630,92.057630,-3.258723,0.201181,9.465656,-3.249568,0.177908,-0.689746,-0.743375,4.000000,-0.296486,-0.298163,0.000000,0.000000,-0.298163
3.666667,-0.325738,55.008028,3.236363,0.886584,-0.015561,0.461554,0.026359,1.000000,55.105807,-0.033641,0.997808,0.056985,3.266764,91.930994,91.930994,-3.382575,0.423002,9.351902,-3.373420,0.399730,-0.803499,-0.527946,4.000000,-0.264967,-0.316913,0.000000,0.000000,-0.316913
3.714286,-0.304482,54.742680,3.252741,0.887650,-0.015407,0.459502,0.026425,1.000000,54.841186,-0.033456,0.997792,0.057382,3.289527,91.920431,91.920431,-3.913397,0.223604,9.957454,-3.904242,0.200332,-0.197947,-0.037801,4.000000,-0.210108,-0.333051,0.000000,0.000000,-0.333051
3.761905,0.109591,54.353238,3.669860,0.889160,-0.013774,0.456528,0.028049,1.000000,54.464175,-0.030102,0.997666,0.061296,3.514176,91.728202,91.728202,-4.638093,0.031610,11.047654,-4.628938,0.008337,0.892253,0.495782,4.000000,-0.129839,-0.345367,0.000000,0.000000,-0.345367
3.809524,0.009051,53.867569,3.576643,0.891097,-0.014065,0.452742,0.027786,1.000000,53.977037,-0.030993,0.997642,0.061229,3.510335,91.779414,91.779414,-4.373566,-0.342632,10.899365,-4.364411,-0.365905,0.743964,0.748930,4.000000,-0.037516,-0.353286,0.000000,0.000000,-0.353286
3.857143,-0.016735,53.449080,3.572050,0.892743,-0.014146,0.449479,0.027903,1.000000,53.560066,-0.031397,0.997587,0.061929,3.550567,91.802645,91.802645,-4.329375,-0.161280,10.783868,-4.320220,-0.184552,0.628466,0.695121,4.000000,0.052244,-0.356931,0.000000,0.000000,-0.356931
3.904762,-0.172451,52.999307,3.445671,0.894511,-0.014761,0.445950,0.027577,1.000000,53.108544,-0.033019,0.997549,0.061687,3.536677,91.895780,91.895780,-3.941855,-0.443880,10.588128,-3.932700,-0.467152,0.432726,0.530683,4.000000,0.134174,-0.356675,0.000000,0.000000,-0.356675
3.952381,-0.232582,52.542902,3.415279,0.896280,-0.015009,0.442373,0.027619,1.000000,52.653301,-0.033843,0.997485,0.062278,3.570552,91.943231,91.943231,-3.798921,-0.311105,10.587916,-3.789766,-0.334378,0.432515,0.374727,4.000000,0.208678,-0.352871,0.000000,0.000000,-0.352871
4.000000,-0.274189,52.096418,3.391741,0.897998,-0.015144,0.438870,0.027638,1.000000,52.207781,-0.034419,0.997432,0.062814,3.601372,91.976355,91.976355,-3.753006,-0.323798,10.458252,-3.743851,-0.347071,0.302851,0.227018,4.000000,0.276148,-0.345854,0.000000,0.000000,-0.345854
4.047619,-0.224663,51.671320,3.453790,0.899611,-0.014897,0.435539,0.027977,1.000000,51.785915,-0.034112,0.997362,0.064067,3.673257,91.958895,91.958895,-3.832909,-0.336352,10.164938,-3.823754,-0.359624,0.009537,0.107543,4.000000,0.337928,-0.335895,0.000000,0.000000,-0.335895
4.095238,0.004399,51.259585,3.691719,0.901140,-0.013898,0.432331,0.029025,1.000000,51.383245,-0.032059,0.997241,0.066950,3.838852,91.841275,91.841275,-3.772217,-0.243652,10.135428,-3.763062,-0.266924,-0.019974,0.061144,4.000000,0.397500,-0.323099,0.000000,0.000000,-0.323099
4.142857,0.201444,50.861677,3.897325,0.902606,-0.013015,0.429226,0.029955,1.000000,50.994406,-0.030235,0.997118,0.069586,3.990234,91.736837,91.736837,-3.711585,-0.265405,10.214182,-3.702429,-0.288678,0.058781,0.021568,4.000000,0.455186,-0.307557,0.000000,0.000000,-0.307557
4.190476,0.353987,50.476540,4.072452,0.904014,-0.012357,0.426212,0.030823,1.000000,50.618436,-0.028906,0.996978,0.072100,4.134637,91.660751,91.660751,-3.666031,-0.283373,10.129319,-3.656876,-0.306646,-0.026082,-0.184525,4.000000,0.503059,-0.289734,0.000000,0.000000,-0.289734
4.238095,0.477112,50.096045,4.224861,0.905395,-0.011836,0.423225,0.031632,1.000000,50.247006,-0.027878,0.996831,0.074504,4.272700,91.601974,91.601974,-3.418307,-0.291595,9.561264,-3.409152,-0.314867,-0.594138,-0.629038,4.000000,0.529764,-0.270640,0.000000,0.000000,-0.270640
4.285714,0.576519,49.720928,4.363483,0.906746,-0.011443,0.420274,0.032428,1.000000,49.881144,-0.027137,0.996669,0.076901,4.410482,91.559635,91.559635,-3.173790,-0.206571,8.852059,-3.164635,-0.229844,-1.303342,-1.163809,4.000000,0.531004,-0.251487,0.000000,0.000000,-0.251487
4.333333,0.732108,49.323923,4.542720,0.908159,-0.010735,0.417158,0.033353,1.000000,49.495802,-0.025644,0.996491,0.079672,4.569715,91.474149,91.474149,-3.012095,-0.036820,8.709271,-3.002940,-0.060093,-1.446130,-1.548854,4.000000,0.513909,-0.233149,0.000000,0.000000,-0.233149
4.380952,0.815830,48.935260,4.654555,0.909541,-0.010344,0.414090,0.034014,1.000000,49.115907,-0.024888,0.996335,0.081839,4.694300,91.430906,91.430906,-2.821119,0.137409,8.150947,-2.811964,0.114137,-2.004455,-1.648756,4.000000,0.492056,-0.215850,0.000000,0.000000,-0.215850
4.428571,1.003183,48.583315,4.848057,0.910765,-0.009426,0.411335,0.034950,1.000000,48.777429,-0.022829,0.996150,0.084641,4.855384,91.312806,91.312806,-3.310577,0.408551,8.776073,-3.301422,0.385278,-1.379328,-1.573462,4.000000,0.473789,-0.199422,0.000000,0.000000,-0.199422
4.476190,0.917312,48.230805,4.754531,0.912045,-0.009647,0.408514,0.034590,1.000000,48.420910,-0.023524,0.996159,0.084348,4.838508,91.352753,91.352753,-3.255847,0.381135,8.915445,-3.246692,0.357862,-1.239956,-1.591644,4.000000,0.454656,-0.183904,0.000000,0.000000,-0.183904
4.523810,0.763903,47.902706,4.613238,0.913239,-0.010251,0.405868,0.034077,1.000000,48.086373,-0.025161,0.996178,0.083639,4.797776,91.446830,91.446830,-2.819130,0.270477,7.925372,-2.809975,0.247205,-2.230029,-1.795460,4.000000,0.425817,-0.169760,0.000000,0.000000,-0.169760
4.571429,0.455572,47.599955,4.336304,0.914358,-0.011632,0.403390,0.033012,1.000000,47.770485,-0.028728,0.996257,0.081529,4.676464,91.651703,91.651703,-3.009870,-0.186588,8.365715,-3.000715,-0.209861,-1.789686,-2.049624,4.000000,0.384875,-0.157566,0.000000,0.000000,-0.157566
4.619048,-0.034256,47.280642,3.893457,0.915548,-0.013896,0.400753,0.031239,1.000000,47.432680,-0.034548,0.996380,0.077669,4.454616,91.985858,91.985858,-2.644336,-0.630280,7.805883,-2.635181,-0.653553,-2.349519,-2.236166,4.000000,0.335051,-0.147744,0.000000,0.000000,-0.147744
4.666667,-0.424064,46.954495,3.571824,0.916721,-0.015808,0.398083,0.030058,1.000000,47.097465,-0.039567,0.996381,0.075235,4.314713,92.274072,92.274072,-2.605947,-0.865337,7.722224,-2.596792,-0.888610,-2.433178,-2.321767,4.000000,0.281150,-0.140489,0.000000,0.000000,-0.140489
4.714286,-0.733998,46.637567,3.337537,0.917835,-0.017407,0.395499,0.029277,1.000000,46.776943,-0.043850,0.996312,0.073751,4.229477,92.520111,92.520111,-2.919002,-1.000796,8.149507,-2.909847,-1.024068,-2.005894,-2.318125,4.000000,0.227423,-0.135792,0.000000,0.000000,-0.135792
4.761905,-0.915207,46.309618,3.232031,0.918962,-0.018429,0.392841,0.029068,1.000000,46.450338,-0.046733,0.996184,0.073711,4.227180,92.685912,92.685912,-2.755479,-0.849521,7.718374,-2.746324,-0.872793,-2.437028,-2.203731,4.000000,0.179143,-0.133394,0.000000,0.000000,-0.133394
4.809524,-0.833774,46.011776,3.366822,0.919960,-0.018175,0.390450,0.029882,1.000000,46.159665,-0.046364,0.996012,0.076227,4.371732,92.665176,92.665176,-3.167284,-0.331942,8.327798,-3.158129,-0.355214,-1.827603,-1.866341,4.000000,0.146929,-0.132531,0.000000,0.000000,-0.132531
4.857143,-0.641388,45.732542,3.593476,0.920879,-0.017338,0.388223,0.031063,1.000000,45.890242,-0.044474,0.995828,0.079680,4.570191,92.557139,92.557139,-3.418038,-0.066817,8.575519,-3.408883,-0.090090,-1.579882,-1.281391,4.000000,0.142570,-0.131875,0.000000,0.000000,-0.131875
4.904762,-0.372266,45.480267,3.879581,0.921692,-0.016079,0.386227,0.032473,1.000000,45.650680,-0.041448,0.995628,0.083710,4.801834,92.383874,92.383874,-4.168753,0.225016,9.889891,-4.159598,0.201744,-0.265511,-0.677279,4.000000,0.166978,-0.130056,0.000000,0.000000,-0.130056
4.952381,-0.283440,45.249177,3.924780,0.922468,-0.015455,0.384387,0.032559,1.000000,45.420671,-0.040031,0.995633,0.084334,4.837745,92.302436,92.302436,-4.126127,0.621873,9.830142,-4.116971,0.598601,-0.325259,-0.329502,4.000000,0.207947,-0.126287,0.000000,0.000000,-0.126287
5.000000,-0.196701,45.025546,3.963852,0.923217,-0.014827,0.382605,0.032606,1.000000,45.197834,-0.038583,0.995647,0.084849,4.867331,92.219215,92.219215,-4.060385,0.627128,9.613895,-4.051230,0.603856,-0.541507,-0.281791,4.000000,0.251188,-0.120458,0.000000,0.000000,-0.120458
5.047619,-0.301610,44.805232,3.792300,0.923986,-0.015042,0.380822,0.031593,1.000000,44.968106,-0.039334,0.995805,0.082613,4.738760,92.261978,92.261978,-4.105826,0.457649,9.896133,-4.096670,0.434377,-0.259268,-0.461714,4.000000,0.285861,-0.112979,0.000000,0.000000,-0.112979
5.095238,-0.488766,44.606000,3.532979,0.924692,-0.015643,0.379199,0.030138,1.000000,44.756131,-0.041088,0.996015,0.079161,4.540317,92.362250,92.362250,-3.877254,0.237267,9.446502,-3.868099,0.213995,-0.708899,-0.838030,4.000000,0.302614,-0.104702,0.000000,0.000000,-0.104702
5.142857,-0.715834,44.394798,3.240538,0.925433,-0.016464,0.377477,0.028538,1.000000,44.532597,-0.043450,0.996213,0.075316,4.319404,92.497374,92.497374,-3.456289,-0.108883,8.696742,-3.447133,-0.132156,-1.458659,-1.269797,4.000000,0.298807,-0.096606,0.000000,0.000000,-0.096606
5.190476,-0.844856,44.193828,3.039803,0.926124,-0.016806,0.375851,0.027348,1.000000,44.323029,-0.044553,0.996373,0.072498,4.157494,92.560282,92.560282,-3.542659,-0.291265,8.560677,-3.533503,-0.314537,-1.594724,-1.511105,4.000000,0.283509,-0.089238,0.000000,0.000000,-0.089238
5.238095,-0.921430,43.892593,2.854173,0.927142,-0.016763,0.373424,0.026104,1.000000,44.012786,-0.044737,0.996567,0.069663,3.994652,92.570353,92.570353,-2.967441,-0.355800,8.659255,-2.958286,-0.379073,-1.496147,-1.481071,4.000000,0.269642,-0.082531,0.000000,0.000000,-0.082531
5.285714,-0.932001,43.435178,2.736543,0.928652,-0.016389,0.369734,0.025192,1.000000,43.548836,-0.044181,0.996713,0.067910,3.893976,92.538097,92.538097,-2.007143,-0.405504,8.962897,-1.997988,-0.428777,-1.192505,-1.326604,4.000000,0.263130,-0.076134,0.000000,0.000000,-0.076134
5.333333,-0.906370,43.026988,2.725642,0.929970,-0.016078,0.366430,0.025026,1.000000,43.139725,-0.043733,0.996721,0.068072,3.903239,92.512374,92.512374,-2.208516,-0.457364,8.985426,-2.199361,-0.480636,-1.169975,-1.203984,4.000000,0.262457,-0.069769,0.000000,0.000000,-0.069769
5.380952,-0.849037,42.780877,2.713040,0.930766,-0.015531,0.364446,0.024744,1.000000,42.890858,-0.042479,0.996803,0.067677,3.880576,92.440187,92.440187,-3.404830,-0.392929,8.957223,-3.395674,-0.416201,-1.198179,-1.115264,4.000000,0.266008,-0.063235,0.000000,0.000000,-0.063235
5.428571,-0.757119,42.631255,2.693489,0.931258,-0.014697,0.363252,0.024296,1.000000,42.736457,-0.040335,0.996959,0.066681,3.823348,92.316839,92.316839,-4.140429,-0.330106,9.091273,-4.131274,-0.353379,-1.064128,-0.992829,4.000000,0.275390,-0.056254,0.000000,0.000000,-0.056254
5.476190,-0.679412,42.499724,2.629112,0.931698,-0.013839,0.362207,0.023529,1.000000,42.597934,-0.038099,0.997172,0.064778,3.714081,92.188058,92.188058,-4.506020,-0.278518,9.420193,-4.496865,-0.301790,-0.735208,-0.854119,4.000000,0.291377,-0.048512,0.000000,0.000000,-0.048512
5.523810,-0.670285,42.322791,2.462388,0.932291,-0.013210,0.360790,0.022149,1.000000,42.410512,-0.036521,0.997455,0.061233,3.510586,92.096917,92.096917,-3.977272,-0.377036,9.329032,-3.968117,-0.400308,-0.826370,-0.780468,4.000000,0.310872,-0.039841,0.000000,0.000000,-0.039841
5.571429,-0.665807,42.060993,2.302306,0.933144,-0.012632,0.358677,0.020836,1.000000,42.139482,-0.035136,0.997701,0.057958,3.322621,92.016963,92.016963,-3.119177,-0.324637,9.315332,-3.110022,-0.347909,-0.840069,-0.822135,4.000000,0.328382,-0.030337,0.000000,0.000000,-0.030337
5.619048,-0.717433,41.778172,2.139976,0.934050,-0.012506,0.356382,0.019678,1.000000,41.849750,-0.035018,0.997867,0.055098,3.158491,92.009839,92.009839,-2.665033,-0.359843,9.210470,-2.655877,-0.383115,-0.944931,-1.004211,4.000000,0.337222,-0.020411,0.000000,0.000000,-0.020411
5.666667,-0.793277,41.538926,1.984102,0.934810,-0.012611,0.354435,0.018643,1.000000,41.605139,-0.035510,0.997990,0.052492,3.008975,92.037789,92.037789,-2.655315,-0.299944,8.812905,-2.646160,-0.323216,-1.342496,-1.338618,4.000000,0.330138,-0.010823,0.000000,0.000000,-0.010823
5.714286,-0.869445,41.382432,1.813573,0.935312,-0.012689,0.353165,0.017485,1.000000,41.442877,-0.035861,0.998134,0.049417,2.832548,92.057646,92.057646,-2.761601,-0.167182,8.361673,-2.752446,-0.190455,-1.793728,-1.790001,4.000000,0.301559,-0.002596,0.000000,0.000000,-0.002596
5.761905,-0.974730,41.241670,1.612592,0.935763,-0.012916,0.352022,0.016165,1.000000,41.296521,-0.036628,0.998277,0.045842,2.627492,92.101290,92.101290,-2.619759,-0.146815,8.094566,-2.610603,-0.170087,-2.060835,-2.244261,4.000000,0.251349,0.003240,0.000000,0.000000,0.003240
5.809524,-1.055004,41.071300,1.437453,0.936300,-0.013021,0.350640,0.014976,1.000000,41.121535,-0.037075,0.998402,0.042641,2.443884,92.126679,92.126679,-1.991952,-0.199401,7.235586,-1.982797,-0.222673,-2.919815,-2.512209,4.000000,0.188380,0.006077,0.000000,0.000000,0.006077
5.857143,-1.059735,40.940047,1.349119,0.936712,-0.012780,0.349576,0.014263,1.000000,40.986899,-0.036505,0.998503,0.040740,2.334867,92.093768,92.093768,-2.385067,-0.158372,8.100893,-2.375912,-0.181644,-2.054509,-2.439929,4.000000,0.128852,0.006080,0.000000,0.000000,0.006080
5.904762,-1.113521,40.848901,1.225827,0.936999,-0.012839,0.348838,0.013415,1.000000,40.892924,-0.036752,0.998586,0.038402,2.200806,92.107752,92.107752,-2.269890,-0.160877,7.675414,-2.260735,-0.184150,-2.479987,-2.012175,4.000000,0.089694,0.004218,0.000000,0.000000,0.004218
5.952381,-1.015939,40.824473,1.256591,0.937080,-0.012133,0.348646,0.013369,1.000000,40.866207,-0.034753,0.998662,0.038293,2.194554,91.993069,91.993069,-3.046641,-0.140814,8.820589,-3.037486,-0.164086,-1.334812,-1.413917,4.000000,0.079024,0.001848,0.000000,0.000000,0.001848
6.000000,-1.025701,40.857211,1.207603,0.936985,-0.012065,0.348918,0.012999,1.000000,40.897408,-0.034535,0.998711,0.037207,2.132300,91.980481,91.980481,-3.815900,-0.181124,9.635933,-3.806745,-0.204397,-0.519468,-1.015929,4.000000,0.087306,-0.000127,0.000000,0.000000,-0.000127
6.047619,-1.000393,40.963911,1.210115,0.936662,-0.011873,0.349793,0.012947,1.000000,41.003252,-0.033899,0.998741,0.036966,2.118461,91.943969,91.943969,-3.936078,-0.167478,8.930625,-3.926923,-0.190751,-1.224776,-1.022168,4.000000,0.095291,-0.001722,0.000000,0.000000,-0.001722
6.095238,-1.002119,41.066701,1.206791,0.936348,-0.011883,0.350633,0.012929,1.000000,41.105900,-0.033847,0.998748,0.036826,2.110480,91.940957,91.940957,-3.890551,-0.157728,8.807499,-3.881396,-0.181000,-1.347903,-1.226928,4.000000,0.093525,-0.003402,0.000000,0.000000,-0.003402
6.142857,-0.923909,41.183859,1.296316,0.935987,-0.011525,0.351590,0.013425,1.000000,41.223720,-0.032739,0.998736,0.038134,2.185469,91.877533,91.877533,-3.899125,-0.082229,8.757077,-3.889970,-0.105501,-1.398324,-1.354928,4.000000,0.085664,-0.005455,0.000000,0.000000,-0.005455
6.190476,-0.843748,41.284549,1.368754,0.935677,-0.011100,0.352415,0.013773,1.000000,41.324553,-0.031459,0.998743,0.039032,2.236928,91.804123,91.804123,-3.867179,0.038126,8.979329,-3.858024,0.014854,-1.176073,-1.354513,4.000000,0.077823,-0.007882,0.000000,0.000000,-0.007882
6.238095,-0.740710,41.364181,1.454458,0.935431,-0.010529,0.353070,0.014157,1.000000,41.404354,-0.029785,0.998754,0.040046,2.295091,91.708191,91.708191,-3.559948,-0.056352,8.663663,-3.550793,-0.079625,-1.491738,-1.271902,4.000000,0.073916,-0.010495,0.000000,0.000000,-0.010495
6.285714,-0.619781,41.470506,1.561539,0.935100,-0.009882,0.353943,0.014658,1.000000,41.511463,-0.027886,0.998755,0.041363,2.370614,91.599300,91.599300,-3.778095,0.011981,9.044489,-3.768940,-0.011291,-1.110912,-1.164126,4.000000,0.075141,-0.013050,0.000000,0.000000,-0.013050
6.333333,-0.484710,41.597763,1.692104,0.934700,-0.009197,0.354988,0.015305,1.000000,41.640488,-0.025875,0.998737,0.043060,2.467947,91.484071,91.484071,-4.063716,-0.064968,9.208771,-4.054561,-0.088240,-0.946630,-1.140491,4.000000,0.077491,-0.015493,0.000000,0.000000,-0.015493
6.380952,-0.395681,41.752594,1.769582,0.934216,-0.008729,0.356257,0.015658,1.000000,41.796298,-0.024470,0.998736,0.043897,2.515921,91.403516,91.403516,-4.204088,-0.132352,8.988202,-4.194933,-0.155624,-1.167199,-1.214903,4.000000,0.076298,-0.017993,0.000000,0.000000,-0.017993
6.428571,-0.267128,41.890894,1.889029,0.933778,-0.008070,0.357393,0.016228,1.000000,41.936764,-0.022550,0.998717,0.045348,2.599165,91.293449,91.293449,-3.862343,-0.247136,8.557345,-3.853188,-0.270408,-1.598056,-1.196898,4.000000,0.075963,-0.020508,0.000000,0.000000,-0.020508
6.476190,-0.091342,42.009450,2.061314,0.933394,-0.007192,0.358373,0.017078,1.000000,42.059445,-0.020040,0.998666,0.047590,2.727742,91.149605,91.149605,-4.096324,-0.258628,9.267312,-4.087169,-0.281900,-0.888090,-0.981623,4.000000,0.085878,-0.022552,0.000000,0.000000,-0.022552
6.523810,0.107488,41.848293,2.339314,0.933866,-0.006414,0.357075,0.018732,1.000000,41.908637,-0.017935,0.998466,0.052379,3.002455,91.029094,91.029094,-1.963944,-0.150319,9.756586,-1.954789,-0.173592,-0.398816,-0.745446,4.000000,0.107040,-0.023588,0.000000,0.000000,-0.023588
6.571429,0.325844,41.923246,2.660802,0.933588,-0.005651,0.357706,0.020664,1.000000,41.997460,-0.015771,0.998211,0.057665,3.305809,90.905131,90.905131,-3.447114,-0.226400,9.456199,-3.437959,-0.249672,-0.699202,-0.601421,4.000000,0.135061,-0.023289,0.000000,0.000000,-0.023289
6.619048,0.533086,42.074099,2.988708,0.933065,-0.005021,0.358959,0.022671,1.000000,42.164659,-0.013958,0.997914,0.063025,3.613456,90.801354,90.801354,-4.138027,-0.540487,9.474696,-4.128872,-0.563759,-0.680705,-0.370579,4.000000,0.174074,-0.021133,0.000000,0.000000,-0.021133
6.666667,0.736483,42.230116,3.275319,0.932525,-0.004302,0.360259,0.024345,1.000000,42.336272,-0.011913,0.997654,0.067418,3.865689,90.684160,90.684160,-4.531357,-0.562290,10.145712,-4.522202,-0.585562,-0.009689,0.040250,4.000000,0.232650,-0.016187,0.000000,0.000000,-0.016187
6.714286,0.931726,42.403005,3.581176,0.931920,-0.003723,0.361697,0.026192,1.000000,42.527725,-0.010266,0.997336,0.072220,4.141516,90.589765,90.589765,-4.454076,-0.401580,10.205075,-4.444921,-0.424852,0.049673,0.230363,4.000000,0.300279,-0.008021,0.000000,0.000000,-0.008021
6.761905,1.002006,42.592911,3.756025,0.931282,-0.003759,0.363252,0.027359,1.000000,42.728998,-0.010320,0.997123,0.075099,4.306909,90.592954,90.592954,-4.192657,-0.173097,9.656448,-4.183502,-0.196369,-0.498953,-0.673343,4.000000,0.324875,0.001316,0.000000,0.000000,0.001316
6.809524,1.043557,42.793078,3.896783,0.930614,-0.003929,0.364883,0.028334,1.000000,42.938564,-0.010735,0.996941,0.077416,4.440033,90.616935,90.616935,-4.058344,-0.137519,9.536734,-4.049189,-0.160791,-0.618667,-3.183485,4.000000,0.229940,0.006133,0.000000,0.000000,0.006133
6.857143,-0.045378,42.281230,3.160278,0.932339,-0.010314,0.360511,0.025862,1.000000,42.395049,-0.028526,0.997031,0.071524,4.101538,91.638815,91.638815,-0.494829,0.012835,1.907130,-0.485674,-0.010438,-8.248272,-6.018584,4.000000,0.000000,0.000000,0.000000,0.000000,0.000000
6.904762,-0.237828,41.492550,3.586701,0.934675,-0.013025,0.353995,0.030000,1.000000,41.648538,-0.036639,0.995759,0.084388,4.840855,92.107277,92.107277,1.331055,-2.139220,1.705996,1.340210,-2.162493,-8.449405,-6.753830,4.000000,-0.265678,-0.015116,0.000000,0.000000,-0.015116
6.952381,-0.327990,41.381741,3.518367,0.935025,-0.013523,0.353076,0.029729,1.000000,41.535777,-0.038138,0.995749,0.083843,4.809508,92.193385,92.193385,-2.615597,2.619125,6.360449,-2.606442,2.595852,-3.794952,-4.840236,4.000000,-0.440232,-0.038543,0.000000,0.000000,-0.038543
7.000000,0.390472,40.557204,4.194191,0.937428,-0.009488,0.346468,0.033145,1.000000,40.751981,-0.027251,0.995086,0.095194,5.462482,91.568710,91.568710,-3.858794,0.315563,9.244641,-3.849639,0.292290,-0.910760,-2.132511,4.000000,-0.485847,-0.064143,0.000000,0.000000,-0.064143
7.047619,0.257130,41.044360,4.104940,0.935962,-0.010455,0.350419,0.032756,1.000000,41.231908,-0.029694,0.995221,0.093029,5.337860,91.709016,91.709016,-3.590671,-0.317205,9.081924,-3.581516,-0.340478,-1.073478,-0.208430,4.000000,-0.439839,-0.087552,0.000000,0.000000,-0.087552
7.095238,0.217442,40.726998,4.091350,0.936928,-0.010644,0.347816,0.032805,1.000000,40.916128,-0.030452,0.995120,0.093858,5.385588,91.752764,91.752764,-4.472630,-0.557867,11.356214,-4.463475,-0.581139,1.200812,0.811646,4.000000,-0.345257,-0.106457,0.000000,0.000000,-0.106457
7.142857,0.074266,40.414378,3.956505,0.937898,-0.011316,0.345231,0.032172,1.000000,40.597036,-0.032619,0.995156,0.092738,5.321114,91.877367,91.877367,-4.409542,-0.371311,11.176113,-4.400387,-0.394584,1.020712,1.253692,4.000000,-0.229624,-0.119856,0.000000,0.000000,-0.119856
7.190476,-0.048221,40.111823,3.885214,0.938814,-0.012020,0.342726,0.031987,1.000000,40.293485,-0.034899,0.995066,0.092870,5.328763,92.008650,92.008650,-4.668943,-0.410497,11.567042,-4.659787,-0.433769,1.411641,1.289563,4.000000,-0.112283,-0.127667,0.000000,0.000000,-0.127667
7.238095,-0.223521,39.883043,3.770548,0.939509,-0.013053,0.340815,0.031591,1.000000,40.061576,-0.038108,0.995008,0.092229,5.291831,92.193309,92.193309,-4.934618,-0.372473,11.320043,-4.925463,-0.395746,1.164642,1.065455,4.000000,-0.005614,-0.130398,0.000000,0.000000,-0.130398
7.285714,-0.377571,39.620105,3.665912,0.940299,-0.013938,0.338629,0.031209,1.000000,39.796302,-0.040953,0.994945,0.091696,5.261194,92.357027,92.357027,-4.542579,-0.334765,10.635600,-4.533423,-0.358038,0.480198,0.787811,4.000000,0.087834,-0.128680,0.000000,0.000000,-0.128680
7.333333,-0.456793,39.378679,3.666759,0.941001,-0.014530,0.336625,0.031465,1.000000,39.559367,-0.042938,0.994742,0.092979,5.335037,92.471618,92.471618,-4.711504,-0.377337,10.771406,-4.702349,-0.400610,0.616005,0.587195,4.000000,0.171729,-0.122967,0.000000,0.000000,-0.122967
7.380952,-0.589396,39.148325,3.625326,0.941670,-0.015441,0.334701,0.031526,1.000000,39.332081,-0.045882,0.994545,0.093676,5.375137,92.641403,92.641403,-4.804199,-0.514464,10.852173,-4.795044,-0.537736,0.696771,0.397121,4.000000,0.246572,-0.113689,0.000000,0.000000,-0.113689
7.428571,-0.627968,38.923600,3.692204,0.942301,-0.015897,0.332834,0.032199,1.000000,39.116552,-0.047488,0.994230,0.096183,5.519416,92.734585,92.734585,-4.284718,-0.456816,9.986253,-4.275563,-0.480089,-0.169148,0.136881,4.000000,0.309024,-0.101438,0.000000,0.000000,-0.101438
7.476190,-0.604637,38.681784,3.819576,0.942969,-0.016013,0.330833,0.033191,1.000000,38.887296,-0.048104,0.993853,0.099709,5.722440,92.771046,92.771046,-3.947218,-0.394193,9.975035,-3.938063,-0.417465,-0.180366,-0.189787,4.000000,0.355919,-0.086954,0.000000,0.000000,-0.086954
7.523810,-0.631253,38.445211,3.924352,0.943616,-0.016471,0.328863,0.034143,1.000000,38.663911,-0.049756,0.993422,0.103138,5.919899,92.867315,92.867315,-3.711591,-0.351919,9.899661,-3.702436,-0.375191,-0.255740,-0.623154,4.000000,0.382178,-0.071219,0.000000,0.000000,-0.071219
7.571429,-0.678102,38.207576,4.018879,0.944262,-0.017064,0.326877,0.035068,1.000000,38.439914,-0.051835,0.992958,0.106526,6.115111,92.988268,92.988268,-3.085652,-0.335019,8.748223,-3.076497,-0.358292,-1.407178,-1.132767,4.000000,0.384170,-0.055390,0.000000,0.000000,-0.055390
7.619048,-0.607790,37.966747,4.231245,0.944891,-0.017020,0.324882,0.036632,1.000000,38.220114,-0.051989,0.992359,0.111893,6.424477,92.998969,92.998969,-2.889850,-0.161942,8.442312,-2.880695,-0.185214,-1.713089,-1.543619,4.000000,0.366597,-0.040397,0.000000,0.000000,-0.040397
7.666667,-0.577056,37.763890,4.412297,0.945411,-0.017219,0.323192,0.038052,1.000000,38.037726,-0.052838,0.991753,0.116766,6.705475,93.049684,93.049684,-3.131401,-0.231333,8.649606,-3.122246,-0.254605,-1.505795,-1.799813,4.000000,0.336825,-0.026822,0.000000,0.000000,-0.026822
7.714286,-0.558537,37.560193,4.585932,0.945929,-0.017491,0.321491,0.039447,1.000000,37.855249,-0.053923,0.991112,0.121608,6.984936,93.114198,93.114198,-2.850860,-0.124918,7.958819,-2.841705,-0.148190,-2.196582,-2.009294,4.000000,0.297078,-0.015139,0.000000,0.000000,-0.015139
7.761905,-0.552987,37.352316,4.743065,0.946457,-0.017818,0.319752,0.040744,1.000000,37.668212,-0.055193,0.990467,0.126209,7.250563,93.189469,93.189469,-2.874656,-0.115022,8.005123,-2.865501,-0.138294,-2.150279,-2.245823,4.000000,0.246067,-0.005886,0.000000,0.000000,-0.005886
7.809524,-0.564892,37.155427,4.904851,0.946946,-0.018301,0.318095,0.042129,1.000000,37.494515,-0.056942,0.989735,0.131081,7.532079,93.292724,93.292724,-2.773947,-0.126320,7.529633,-2.764792,-0.149592,-2.625769,-2.543639,4.000000,0.180874,0.000263,0.000000,0.000000,0.000263
7.857143,-0.671171,36.943033,4.976131,0.947490,-0.019304,0.316288,0.043028,1.000000,37.299779,-0.060366,0.989066,0.134553,7.732788,93.492593,93.492593,-2.875694,-0.140667,7.550705,-2.866539,-0.163940,-2.604697,-2.915322,4.000000,0.097982,0.002464,0.000000,0.000000,0.002464
7.904762,-0.805156,36.715071,5.015702,0.948080,-0.020443,0.314344,0.043739,1.000000,37.087737,-0.064279,0.988409,0.137532,7.905034,93.720884,93.720884,-2.491231,-0.144980,6.632169,-2.482076,-0.168253,-3.523232,-3.232225,4.000000,0.000000,0.000000,0.000000,0.000000,0.000000
7.952381,-0.914439,36.478546,5.088859,0.948680,-0.021466,0.312331,0.044657,1.000000,36.870990,-0.067879,0.987649,0.141215,8.118164,93.931623,93.931623,-2.726035,-0.200052,6.864042,-2.716880,-0.223325,-3.291359,-3.269563,4.000000,-0.107787,0.006657,0.000000,0.000000,0.006657
8.000000,-1.048477,36.254149,5.136253,0.949247,-0.022627,0.310410,0.045425,1.000000,36.665071,-0.071938,0.986898,0.144423,8.303841,94.169102,94.169102,-3.129541,-0.266673,7.279365,-3.120386,-0.289946,-2.876036,-2.935158,4.000000,-0.199649,0.008940,0.000000,0.000000,0.008940
8.047619,-1.148303,36.023650,5.203120,0.949824,-0.023554,0.308447,0.046259,1.000000,36.454197,-0.075305,0.986132,0.147894,8.504899,94.366876,94.366876,-3.490680,-0.312166,7.740769,-3.481525,-0.335439,-2.414632,-2.319044,4.000000,-0.262173,0.008245,0.000000,0.000000,0.008245
8.095238,-1.241061,35.766724,5.253942,0.950475,-0.024370,0.306267,0.046938,1.000000,36.214904,-0.078409,0.985415,0.151024,8.686295,94.549433,94.549433,-3.855679,-0.409722,8.598865,-3.846524,-0.432995,-1.556537,-1.591405,4.000000,-0.290047,0.006224,0.000000,0.000000,0.006224
8.142857,-1.282653,35.456255,5.312605,0.951271,-0.024761,0.303660,0.047546,1.000000,35.920346,-0.080300,0.984773,0.154191,8.869875,94.661708,94.661708,-3.797377,-0.293783,9.179291,-3.788221,-0.317056,-0.976110,-0.970944,4.000000,-0.288376,0.004281,0.000000,0.000000,0.004281
8.190476,-1.298393,35.081651,5.355780,0.952241,-0.024872,0.300532,0.047957,1.000000,35.558321,-0.081454,0.984225,0.157056,9.036038,94.730983,94.730983,-3.499119,-0.252962,9.667834,-3.489963,-0.276234,-0.487568,-0.666745,4.000000,-0.272219,0.003108,0.000000,0.000000,0.003108
8.238095,-1.346241,34.673796,5.355381,0.953297,-0.025122,0.297120,0.048089,1.000000,35.159493,-0.083177,0.983733,0.159218,9.161483,94.833023,94.833023,-3.316131,-0.211601,9.441887,-3.306976,-0.234873,-0.713514,-0.727277,4.000000,-0.258944,0.002568,0.000000,0.000000,0.002568
8.285714,-1.382960,34.305687,5.335636,0.954251,-0.025245,0.294044,0.048027,1.000000,34.796054,-0.084430,0.983398,0.160622,9.242996,94.907123,94.907123,-3.682889,-0.221361,9.129227,-3.673734,-0.244633,-1.026174,-0.966621,4.000000,-0.257067,0.002116,0.000000,0.000000,0.002116
8.333333,-1.386270,33.959304,5.321571,0.955143,-0.025113,0.291159,0.047925,1.000000,34.452224,-0.084801,0.983168,0.161830,9.313126,94.929735,94.929735,-3.825880,-0.308360,8.877381,-3.816724,-0.331632,-1.278020,-1.114150,4.000000,-0.262215,0.001420,0.000000,0.000000,0.001420
8.380952,-1.384444,33.632191,5.289250,0.955988,-0.024900,0.288438,0.047656,1.000000,34.124050,-0.084865,0.983065,0.162423,9.347587,94.933941,94.933941,-4.117899,-0.281285,9.153360,-4.108744,-0.304558,-1.002041,-1.055840,4.000000,-0.264586,0.000610,0.000000,0.000000,0.000610
8.428571,-1.407017,33.292846,5.223364,0.956863,-0.024804,0.285610,0.047167,1.000000,33.780437,-0.085371,0.983034,0.162344,9.342997,94.963386,94.963386,-3.986243,-0.315898,9.280783,-3.977088,-0.339171,-0.874618,-0.889005,4.000000,-0.259013,0.000066,0.000000,0.000000,0.000066
8.476190,-1.449414,32.929982,5.134770,0.957793,-0.024812,0.282579,0.046535,1.000000,33.411651,-0.086317,0.983027,0.161886,9.316358,95.018091,95.018091,-3.764042,-0.356888,9.429187,-3.754887,-0.380160,-0.726215,-0.773139,4.000000,-0.247922,0.000050,0.000000,0.000000,0.000050
8.523810,-1.499678,32.564382,5.064740,0.958711,-0.024936,0.279516,0.046074,1.000000,33.043910,-0.087686,0.982885,0.162013,9.323739,95.098011,95.098011,-3.603673,-0.457511,9.425375,-3.594517,-0.480783,-0.730027,-0.785459,4.000000,-0.237418,0.000535,0.000000,0.000000,0.000535
8.571429,-1.569868,32.257408,4.974655,0.959480,-0.025202,0.276937,0.045488,1.000000,32.732625,-0.089441,0.982822,0.161434,9.290123,95.199832,95.199832,-3.776757,-0.504521,9.243162,-3.767602,-0.527793,-0.912240,-0.877818,4.000000,-0.231312,0.001310,0.000000,0.000000,0.001310
8.619048,-1.623384,31.946718,4.875978,0.960257,-0.025312,0.274334,0.044786,1.000000,32.414928,-0.090686,0.982868,0.160458,9.233488,95.271548,95.271548,-3.637246,-0.469381,9.160076,-3.628091,-0.492654,-0.995326,-0.930336,4.000000,-0.227707,0.002256,0.000000,0.000000,0.002256
8.666667,-1.639703,31.589170,4.795095,0.961140,-0.025142,0.271347,0.044141,1.000000,32.050534,-0.091073,0.982924,0.159894,9.200747,95.293616,95.293616,-3.066247,-0.346286,9.123517,-3.057092,-0.369558,-1.031885,-0.895371,4.000000,-0.222437,0.003454,0.000000,0.000000,0.003454
8.714286,-1.636038,31.242313,4.754568,0.961977,-0.024906,0.268446,0.043784,1.000000,31.701343,-0.091186,0.982847,0.160305,9.224621,95.300588,95.300588,-3.058721,-0.197676,9.398630,-3.049566,-0.220949,-0.756771,-0.911803,4.000000,-0.217949,0.004866,0.000000,0.000000,0.004866
8.761905,-1.658230,30.973669,4.711782,0.962618,-0.024908,0.266190,0.043470,1.000000,31.431361,-0.091958,0.982745,0.160488,9.235215,95.345745,95.345745,-3.142315,-0.210589,8.973774,-3.133160,-0.233861,-1.181627,-1.217378,4.000000,-0.228012,0.005798,0.000000,0.000000,0.005798
8.809524,-1.700262,30.816127,4.667973,0.962992,-0.025111,0.264860,0.043195,1.000000,31.272734,-0.093165,0.982668,0.160261,9.222031,95.415922,95.415922,-3.563143,-0.245456,8.528251,-3.553988,-0.268729,-1.627151,-1.892624,4.000000,-0.270230,0.004720,0.000000,0.000000,0.004720
8.857143,-1.798076,30.654711,4.563186,0.963383,-0.025642,0.263489,0.042534,1.000000,31.105927,-0.095635,0.982695,0.158634,9.127598,95.558460,95.558460,-2.840700,-0.286564,7.478469,-2.831545,-0.309837,-2.676933,-2.644736,4.000000,-0.348263,-0.000075,0.000000,0.000000,-0.000075
8.904762,-1.837027,30.468860,4.542816,0.963810,-0.025868,0.261916,0.042444,1.000000,30.922983,-0.097032,0.982464,0.159212,9.161171,95.640489,95.640489,-2.132098,-0.215586,6.341038,-2.122943,-0.238859,-3.814364,-2.980373,4.000000,-0.442279,-0.009346,0.000000,0.000000,-0.009346
8.952381,-1.804788,30.360869,4.570610,0.964054,-0.025628,0.261013,0.042600,1.000000,30.817720,-0.096453,0.982340,0.160328,9.225961,95.607702,95.607702,-3.070457,-0.142294,8.108802,-3.061301,-0.165566,-2.046599,-2.774331,4.000000,-0.526483,-0.022626,0.000000,0.000000,-0.022626
9.000000,-1.921543,30.252764,4.476435,0.964310,-0.026364,0.260081,0.042068,1.000000,30.707435,-0.099572,0.982264,0.158881,9.141960,95.788270,95.788270,-2.533938,-0.296232,7.603993,-2.524783,-0.319504,-2.551408,-2.364501,4.000000,-0.591172,-0.038987,0.000000,0.000000,-0.038987
9.047619,-1.973648,30.186393,4.458905,0.964455,-0.026744,0.259507,0.042035,1.000000,30.644371,-0.101208,0.982065,0.159075,9.153229,95.883911,95.883911,-2.833989,-0.282160,8.176908,-2.824834,-0.305432,-1.978494,-2.024652,4.000000,-0.639677,-0.057658,0.000000,0.000000,-0.057658
9.095238,-2.063107,30.171746,4.427889,0.964479,-0.027422,0.259359,0.041976,1.000000,30.634154,-0.103809,0.981822,0.158902,9.143185,96.035539,96.035539,-3.153348,-0.392721,8.437241,-3.144192,-0.415994,-1.718161,-1.770825,4.000000,-0.676095,-0.078063,0.000000,0.000000,-0.078063
9.142857,-2.158436,30.184047,4.384184,0.964444,-0.028129,0.259438,0.041824,1.000000,30.649385,-0.106434,0.981645,0.158253,9.105510,96.188049,96.188049,-3.285645,-0.361060,8.524560,-3.276489,-0.384333,-1.630841,-1.538050,4.000000,-0.701428,-0.099675,0.000000,0.000000,-0.099675
9.190476,-2.246207,30.219004,4.343968,0.964357,-0.028786,0.259710,0.041687,1.000000,30.686980,-0.108790,0.981501,0.157546,9.064486,96.324892,96.324892,-3.495537,-0.409665,8.814832,-3.486382,-0.432937,-1.340569,-1.285640,4.000000,-0.714743,-0.121920,0.000000,0.000000,-0.121920
9.238095,-2.278546,30.285469,4.341913,0.964198,-0.029072,0.260258,0.041749,1.000000,30.755784,-0.109630,0.981425,0.157434,9.057960,96.373803,96.373803,-3.756732,-0.377742,9.234937,-3.747577,-0.401014,-0.920464,-1.055923,4.000000,-0.717118,-0.144279,0.000000,0.000000,-0.144279
9.285714,-2.342395,30.359046,4.321105,0.964021,-0.029582,0.260860,0.041725,1.000000,30.832179,-0.111283,0.981315,0.156964,9.030693,96.469830,96.469830,-3.746210,-0.397874,9.254316,-3.737055,-0.421147,-0.901086,-0.911853,4.000000,-0.712632,-0.166424,0.000000,0.000000,-0.166424
9.333333,-2.377925,30.445801,4.301497,0.963820,-0.029860,0.261582,0.041649,1.000000,30.918698,-0.112021,0.981345,0.156248,8.989211,96.512139,96.512139,-3.762185,-0.245746,9.286616,-3.753030,-0.269019,-0.868785,-0.811393,4.000000,-0.703363,-0.188127,0.000000,0.000000,-0.188127
9.380952,-2.387982,30.550726,4.306076,0.963574,-0.029983,0.262460,0.041720,1.000000,31.024101,-0.112110,0.981375,0.155995,8.974530,96.517093,96.517093,-3.946517,-0.312510,9.292166,-3.937362,-0.335783,-0.863236,-0.682086,4.000000,-0.687937,-0.209096,0.000000,0.000000,-0.209096
9.428571,-2.377412,30.657155,4.329010,0.963323,-0.029975,0.263353,0.041898,1.000000,31.131545,-0.111704,0.981399,0.156133,8.982535,96.493548,96.493548,-4.307658,-0.328671,9.911314,-4.298503,-0.351943,-0.244087,-0.572835,4.000000,-0.667308,-0.229083,0.000000,0.000000,-0.229083
9.476190,-2.389383,30.745982,4.332941,0.963113,-0.030109,0.264095,0.041966,1.000000,31.221174,-0.111888,0.981407,0.155950,8.971918,96.504094,96.504094,-3.974437,-0.330667,9.491044,-3.965281,-0.353940,-0.664358,-0.554313,4.000000,-0.645797,-0.248045,0.000000,0.000000,-0.248045
9.523810,-2.353653,30.828900,4.391030,0.962908,-0.029965,0.264790,0.042379,1.000000,31.308122,-0.111053,0.981326,0.157058,9.036176,96.456479,96.456479,-3.944680,-0.287515,9.471560,-3.935524,-0.310788,-0.683842,-0.561503,4.000000,-0.624628,-0.266000,0.000000,0.000000,-0.266000
9.571429,-2.378406,30.911069,4.407980,0.962704,-0.030235,0.265467,0.042585,1.000000,31.394638,-0.111752,0.981192,0.157400,9.056001,96.497639,96.497639,-4.029603,-0.385996,9.682411,-4.020448,-0.409268,-0.472991,-0.522172,4.000000,-0.601587,-0.282857,0.000000,0.000000,-0.282857
9.619048,-2.400424,30.997498,4.450507,0.962481,-0.030543,0.266174,0.043001,1.000000,31.489111,-0.112558,0.980927,0.158471,9.118178,96.545870,96.545870,-4.180902,-0.585174,9.806368,-4.171747,-0.608447,-0.349033,-0.476681,4.000000,-0.576379,-0.298513,0.000000,0.000000,-0.298513
9.666667,-2.426983,31.077022,4.501744,0.962269,-0.030907,0.266818,0.043500,1.000000,31.578727,-0.113586,0.980582,0.159866,9.199147,96.607426,96.607426,-4.110180,-0.616648,9.598044,-4.101025,-0.639921,-0.557357,-0.445079,4.000000,-0.549666,-0.312898,0.000000,0.000000,-0.312898
9.714286,-2.406036,31.156731,4.596353,0.962051,-0.030974,0.267470,0.044252,1.000000,31.670201,-0.113513,0.980212,0.162173,9.333069,96.605693,96.605693,-4.196766,-0.587592,9.821237,-4.187611,-0.610864,-0.334164,-0.357791,4.000000,-0.518797,-0.325813,0.000000,0.000000,-0.325813
9.761905,-2.346070,31.219971,4.725552,0.961868,-0.030791,0.267990,0.045202,1.000000,31.746926,-0.112577,0.979803,0.165263,9.512501,96.554383,96.554383,-3.946574,-0.556325,9.598170,-3.937418,-0.579597,-0.557231,-0.221891,4.000000,-0.481456,-0.336949,0.000000,0.000000,-0.336949
9.809524,-2.241914,31.292275,4.899718,0.961656,-0.030347,0.268592,0.046425,1.000000,31.835688,-0.110651,0.979338,0.169273,9.745548,96.446247,96.446247,-4.072243,-0.356464,9.895286,-4.063087,-0.379736,-0.260115,-0.353033,4.000000,-0.450361,-0.346605,0.000000,0.000000,-0.346605
9.857143,-2.141971,31.375697,5.056575,0.961421,-0.029903,0.269292,0.047511,1.000000,31.933717,-0.108707,0.978954,0.172716,9.945796,96.336371,96.336371,-3.966591,-0.272865,9.779616,-3.957436,-0.296138,-0.375785,-1.238697,4.000000,-0.461439,-0.356789,0.000000,0.000000,-0.356789
9.904762,-2.070492,31.468401,5.189751,0.961164,-0.029648,0.270065,0.048465,1.000000,32.040455,-0.107428,0.978581,0.175611,10.114218,96.264833,96.264833,-4.030869,-0.214605,9.908802,-4.021714,-0.237877,-0.246599,-2.333829,4.000000,-0.524667,-0.369983,0.000000,0.000000,-0.369983
9.952381,0.137936,30.898433,6.321786,0.962418,-0.013530,0.266043,0.052827,1.000000,31.515916,-0.049820,0.979632,0.194523,11.216863,92.911345,92.911345,3.245330,6.405112,-0.060500,3.254485,6.381839,-10.215901,-1.949080,4.000000,-0.569574,-0.385316,0.000000,0.000000,-0.385316
10.000000,0.098822,30.226070,6.524308,0.963861,-0.014005,0.260349,0.054712,1.000000,30.900797,-0.052571,0.977271,0.205372,11.851276,93.079194,93.079194,-7.504989,-3.339451,19.581203,-7.495834,-3.362723,9.425801,-0.025926,4.000000,-0.522901,-0.398426,0.000000,0.000000,-0.398426
10.047619,0.625696,29.390084,7.058276,0.965526,-0.010343,0.253515,0.058159,1.000000,30.176413,-0.039736,0.973910,0.223427,12.910377,92.336373,92.336373,-1.328084,0.429250,5.809437,-1.318929,0.405977,-4.345964,1.642319,4.000000,-0.396789,-0.405531,0.000000,0.000000,-0.405531
10.095238,1.119744,29.455945,7.524085,0.965177,-0.007250,0.254290,0.060975,1.000000,30.329935,-0.027714,0.972061,0.233086,13.478850,91.633087,91.633087,-7.501625,-0.943654,15.359172,-7.492470,-0.966927,5.203771,2.278424,4.000000,-0.240385,-0.405188,0.000000,0.000000,-0.405188
10.142857,1.230060,29.360954,7.610743,0.965346,-0.006458,0.253544,0.061483,1.000000,30.255512,-0.024745,0.971537,0.235591,13.626486,91.458980,91.458980,-6.159192,0.249734,11.615680,-6.150036,0.226461,1.460279,2.112054,4.000000,-0.091905,-0.397774,0.000000,0.000000,-0.397774
10.190476,1.073720,29.362021,7.502587,0.965392,-0.007536,0.253476,0.060917,1.000000,30.235364,-0.028896,0.971909,0.233576,13.507714,91.702951,91.702951,-5.240525,-0.900706,11.563285,-5.231369,-0.923979,1.407884,1.457911,4.000000,0.025427,-0.384773,0.000000,0.000000,-0.384773
10.238095,1.012855,29.381129,7.445201,0.965376,-0.007933,0.253609,0.060564,1.000000,30.242296,-0.030410,0.972200,0.232171,13.424908,91.791599,91.791599,-4.641280,-0.491184,10.488694,-4.632125,-0.514457,0.333292,0.862557,4.000000,0.114408,-0.367535,0.000000,0.000000,-0.367535
